"NU_ANO_CENSO";"CO_UF";"CO_MUNICIPIO";"NO_ENTIDADE";"CO_ENTIDADE";"DS_ENDERECO";"NU_ENDERECO";"DS_COMPLEMENTO";"NO_BAIRRO";"CO_CEP";"NU_DDD";"NU_TELEFONE";"NU_TELEFONE_PUBLICO";"NU_FAX";"latitude";"longitude";"email";"url_website";"abr_nome"
2018;43;4314902;"EMEI JP CANTINHO AMIGO";43107672;"PCA GARIBALDI";"1";"S/N";"AZENHA";90050020;"51";"32271906";"-";"32271906";"-30.0441";"-51.2194";"emei.cantinhoamigo@smed.prefpoa.com.br            ";"http://websmed.portoalegre.rs.gov.br/escolas/cantinhoamigo/                                         ";"CANTINHO                      "
2018;43;4314902;"EMEI JP CIRANDINHA";43107680;"R VINTE QUATRO DE OUTUBRO";"211";"PQUE TENISTICO INTEN";"INDEPENDENCIA";90510002;"51";"33461600";"-";"32895988";"-30.0278";"-51.205";"emei.cirandinha@smed.prefpoa.com.br               ";"http://websmed.portoalegre.rs.gov.br/escolas/cirandinha/                                            ";"CIRANDINHA                    "
2018;43;4314902;"EMEI JP GIRAFINHA";43107699;"PCA JAYME TELLES";"1";"-";"SANTANA";90650100;"51";"32192589";"-";"32192589";"-30.0521";"-51.2053";"emei.girafinha@smed.prefpoa.com.br                ";"http://websmed.portoalegre.rs.gov.br/escolas/girafinha/                                             ";"GIRAFINHA                     "
2018;43;4314902;"EMEI JP MEU AMIGUINHO";43107702;"R SAO CARLOS";"636";"PCA BART DE GUSMAO";"FLORESTA";90220121;"51";"32276003";"-";"32276003";"-30.0206";"-51.2102";"emei.meuamiguinho@smed.prefpoa.com.br             ";"http://websmed.portoalegre.rs.gov.br/escolas/meuamiguinho/                                          ";"MEU AMIGUINHO                 "
2018;43;4314902;"EMEI JP PASSARINHO DOURADO";43107710;"AV GUIDO MONDIN";"1";"PRACA SAO GERALDO";"SAO GERALDO";90230260;"51";"33372537";"-";"33372537";"-30.011";"-51.1958";"emei.passarinhodourado@smed.prefpoa.com.br        ";"http://websmed.portoalegre.rs.gov.br/escolas/passarinhodourado/                                     ";"PASSARINHO DOURADO            "
2018;43;4314902;"EMEI JP PATINHO FEIO";43108369;"AV BRASIL";"593";"PCA PINHEIRO MACHADO";"SAO GERALDO";90230061;"51";"33742994";"98159212";"33372994";"-30.0051";"-51.2013";"emei.patinhofeio@smed.prefpoa.com.br              ";"http://websmed.portoalegre.rs.gov.br/escolas/patinhofeio/                                           ";"PATINHO FEIO                  "
2018;43;4314902;"EMEI JP PICA-PAU AMARELO";43107729;"PCA GEN OSORIO";"1";"S/N";"CENTRO HISTORIC";90010520;"51";"32275865";"-";"32275865";"-30.0346";"-51.2363";"emei.picapauamarelo@smed.prefpoa.com.br           ";"                                                                                                    ";"PICA-PAU                      "
2018;43;4314902;"EMEI BAIRRO CAVALHADA";43173705;"R CANELA";"180";"CAVALHADA";"CAVALHADA";91740190;"51";"32413604";"-";"-";"-30.0994";"-51.2293";"emei.bairrocavalhada@smed.prefpoa.com.br          ";"http://websmed.portoalegre.rs.gov.br/escolas/cavalhada/                                             ";"CAVALHADA                     "
2018;43;4314902;"EMEI ERICO VERISSIMO";43173691;"R MODESTO FRANCO";"100";"-";"PASSO DAS PEDRAS";91230100;"51";"33481408";"-";"33481408";"-30.0146";"-51.1276";"leticiasaldanha@hotmail.com                       ";"                                                                                                    ";"ÉRICO VERÍSSIMO               "
2018;43;4314902;"EMEI JARDIM BENTO GONCALVES";43173683;"R SARGENTO EXPED GERALDO SANTANA";"40";"PARTENON";"PARTENON";91530640;"51";"33156120";"-";"33156120";"-30.07";"-51.1562";"emei.bentogoncalves@smed.prefpoa.com.br           ";"http://websmed.portoalegre.rs.gov.br/escolas/bentogoncalves/                                        ";"BENTO GONÇALVES               "
2018;43;4314902;"EMEI DO JARDIM SALOMONI";43173675;"R JOAQUIM DE CARVALHO";"325";"VILA NOVA";"VILA NOVA";91740840;"51";"32464712";"-";"32464712";"-30.1165";"-51.2205";"emei.jardimsalomoni@smed.prefpoa.com.br           ";"http://websmed.portoalegre.rs.gov.br/escolas/jardimsalomoni/                                        ";"SALOMONI                      "
2018;43;4314902;"EMEI DA VILA MAX GEISS";43173667;"R ANTONIO FRANCISCO LISBOA";"400";"RUBEM BERTA";"RUBEM BERTA";91180040;"51";"33653448";"-";"33653448";"-30.008";"-51.0968";"emei.vilamaxgeiss@smed.prefpoa.com.br             ";"http://websmed.portoalegre.rs.gov.br/escolas/vilamaxgeiss/                                          ";"MAX GEISS                     "
2018;43;4314902;"EMEI MARIA HELENA CAVALHEIRO GUSMAO";43173659;"R SILVINO OLIVEIRA";"250";"-";"VILA NOVA";91750057;"51";"32464821";"-";"32464821";"-30.1249";"-51.2194";"emei.mariahelenagusmao@smed.prefpoa.com.br        ";"http://websmed.portoalegre.rs.gov.br/escolas/mhgusmao/                                              ";"MARIA HELENA                  "
2018;43;4314902;"EMEI VALE VERDE";43173632;"BC FRANKLIN";"270";"JARDIM SABARA";"JAR ITU SABARA";91210060;"51";"33862044";"-";"33862044";"-30.040799999999997";"-51.1431";"emei.valeverde@smed.prefpoa.com.br                ";"http://websmed.portoalegre.rs.gov.br/escolas/valeverde/                                             ";"VALE VERDE                    "
2018;43;4314902;"EMEI DA VILA ELIZABETH";43173624;"R PAULO GOMES DE OLIVEIRA";"120";"VILA ELIZABETH";"SARANDI";91120570;"51";"33645013";"33563600";"33645013";"-29.9803";"-51.1271";"emei.vilaelizabeth@smed.prefpoa.com.br            ";"http://websmed.portoalegre.rs.gov.br/escolas/vilaelizabeth/                                         ";"VILA ELIZABETH                "
2018;43;4314902;"EMEI DA VILA FLORESTA";43173616;"R MONTE ALEGRE";"55";"JARDIM FLORESTA";"JARDIM FLORESTA";91040120;"51";"33622088";"33611639";"33622088";"-30.0035";"-51.1562";"emei.vilafloresta@smed.prefpoa.com.br             ";"http://websmed.portoalegre.rs.gov.br/escolas/vilafloresta/                                          ";"VILA FLORESTA                 "
2018;43;4314902;"EMEI MARIA MARQUES FERNANDES";43173608;"AV SANTO DIAS DA SILVA";"550";"-";"LOMBA PINHEIRO";91550500;"51";"33191208";"33192555";"33191208";"-30.0967";"-51.1327";"emei.mariafernandes@smed.prefpoa.com.br           ";"http://websmed.portoalegre.rs.gov.br/escolas/mariamarquesfernandes/                                 ";"MARIA MARQUES                 "
2018;43;4314902;"EMEI VILA NOVA";43173594;"R FERNANDO PESSOA";"350";"-";"VILA NOVA";91750340;"51";"32895853";"-";"32464819";"-30.1261";"-51.2094";"emei.vilanova@smed.prefpoa.com.br                 ";"                                                                                                    ";"VILA NOVA                     "
2018;43;4314902;"EMEI DOM LUIZ DE NADAL";43173586;"R DR CARLOS NIEDERAUER HOFMEISTER";"808";"RESTINGA";"RESTINGA";91790020;"51";"32481410";"-";"32481410";"-30.1504";"-51.1395";"emei.luizdenadal@smed.prefpoa.com.br              ";"                                                                                                    ";"LUIZ DE NADAL                 "
2018;43;4314902;"EMEI FLORENCIA VURLOD SOCIAS";43173578;"R TEN ARIZOLY FAGUNDES";"250";"ACESSO I SN";"RESTINGA";91790520;"51";"32501703";"-";"32501703";"-30.1536";"-51.1433";"emei.florenciasocias@smed.prefpoa.com.br          ";"http://websmed.portoalegre.rs.gov.br/escolas/florenciavsocias/                                      ";"FLORENCIA                     "
2018;43;4314902;"EMEI DA VILA NOVA RESTINGA";43173560;"R ALVARO DIFINI";"480";"-";"RESTINGA";91790560;"51";"32501600";"-";"32501600";"-30.1487";"-51.1452";"emei.vilanovarestinga@smed.prefpoa.com.br         ";"                                                                                                    ";"NOVA RESTINGA                 "
2018;43;4314902;"EMEI DA VILA DA PASCOA";43173551;"R LORIS JOSE ISATTO";"0";"VL SANTA ROSA";"RUBEM BERTA";91160160;"51";"33673434";"33879221";"33673434";"-29.9928";"-51.1067";"emei.viladapascoa@smed.prefpoa.com.br             ";"http://websmed.portoalegre.rs.gov.br/escolas/vilapascoa/                                            ";"VILA DA PÁSCOA                "
2018;43;4314902;"EMEI DA VILA TRONCO";43173543;"AV MOAB CALDAS";"129";"SANTA TEREZA";"SANTA TEREZA";90880310;"51";"32669519";"-";"32669519";"-30.0679";"-51.2145";"emei.vilatronco@smed.prefpoa.com.br               ";"                                                                                                    ";"VILA TRONCO                   "
2018;43;4314902;"EMEI DR WALTER SILBER";43173535;"R FREI CLEMENTE";"150";"-";"SAO JOSE";91520260;"51";"33361893";"-";"33361893";"-30.0708";"-51.1698";"emei.waltersilber@smed.prefpoa.com.br             ";"http://websmed.portoalegre.rs.gov.br/escolas/drwaltersilber/                                        ";"WALTER SILBER                 "
2018;43;4314902;"EMEI DOS MUNICIPARIOS TIO BARNABE";43173527;"R OTTO ERNST MEYER";"55";"AZENHA";"AZENHA";90050060;"51";"32274591";"-";"-";"-30.0464";"-51.2157";"emei.tiobarnabe@smed.prefpoa.com.br               ";"http://websmed.portoalegre.rs.gov.br/escolas/barnabe/                                               ";"TIO BARNABÉ                   "
2018;43;4314902;"EMEI PARQUE DOS MAIAS II";43173519;"R AMAURI CAFRUNE";"149";"-";"RUBEM BERTA";91170075;"51";"33673816";"-";"33673816";"-30.0048";"-51.095";"emei.parquedosmaias2@smed.prefpoa.com.br          ";"http://websmed.portoalegre.rs.gov.br/escolas/parquemaias/parquemaias/                               ";"EMEI PARQUE                   "
2018;43;4314902;"EMEI DA VILA NOVA SAO CARLOS";43173500;"C ESTR JOAO DE OLIVEIRA REMIAO";"1";"-";"LOMBA DO PINHEIRO";91560695;"51";"33191146";"-";"33191146";"-30.1107";"-51.1106";"emei.vilanovasaocarlos@smed.prefpoa.com.br        ";"http://websmed.portoalegre.rs.gov.br/escolas/vilanovasaocarlos/                                     ";"NOVA SÃO CARLOS               "
2018;43;4314902;"EMEI DA VILA MAPA II";43173497;"R PEDRO GOLOMBIEWSKI";"100";"LOMBA DO PINHEIRO";"LOMBA PINHEIRO";91550230;"51";"33191633";"-";"33191633";"-30.0961";"-51.1345";"emei.vilamapa2@smed.prefpoa.com.br                ";"http://websmed.portoalegre.rs.gov.br/escolas/vilamapaii/                                            ";"VILA MAPA II                  "
2018;43;4314902;"EMEI ILHA DA PINTADA";43175163;"R GARRUCHOS";"0";"ILHA DA PINTADA";"ARQUIPELAGO";90090080;"51";"32117542";"-";"32117542";"-30.0165";"-51.2604";"emei.ilhadapintada@smed.prefpoa.com.br            ";"http://websmed.portoalegre.rs.gov.br/escolas/ilhadapintada/index.htm                                ";"ILHA DA PINTADA               "
2018;43;4314902;"EMEI JARDIM CAMAQUA";43173489;"R JARDIM DAS BROMELIAS";"1";"-";"CAMAQUA";91920400;"51";"32414986";"32417143";"32414986";"-30.1116";"-51.2354";"emei.jardimcamaqua@smed.prefpoa.com.br            ";"http://websmed.portoalegre.rs.gov.br/escolas/camaqua/index.htm                                      ";"JARDIM CAMAQUÃ                "
2018;43;4314902;"EMEI PADRE ANGELO COSTA";43173470;"R PRIMEIRO DE MARCO";"300";"-";"SAO JOSE";91520620;"51";"33183108";"33183174";"33183108";"-30.066";"-51.1676";"emei.angelocosta@smed.prefpoa.com.br              ";"http://websmed.portoalegre.rs.gov.br/escolas/padreangelocosta/                                      ";"PE ÂNGELO COSTA               "
2018;43;4314902;"EMEI PROTASIO ALVES";43173462;"R ARACY FROES";"210";"JARDIM SABARA";"JAR ITU SABARA";91210230;"51";"33383510";"-";"33383510";"-30.039499999999997";"-51.144299999999994";"emei.protasioalves@smed.prefpoa.com.br            ";"http://websmed.portoalegre.rs.gov.br/escolas/protasioalves/index.htm                                ";"PROTÁSIO ALVES                "
2018;43;4314902;"EMEI NOVA GLEBA";43173454;"R GUIDO ALBERTO WERLANG";"747";"-";"RUBEM BERTA";91170300;"51";"33674007";"-";"33674007";"-29.9991";"-51.0934";"emei.novagleba@smed.prefpoa.com.br                ";"http://websmed.portoalegre.rs.gov.br/escolas/novagleba                                              ";"NOVA GLEBA                    "
2018;43;4314902;"EMEI DA VILA SANTA ROSA";43175155;"AV DONARIO BRAGA";"1";"VILA SANTA ROSA";"RUBEM BERTA";91160360;"51";"33876499";"-";"33876499";"-29.998";"-51.1032";"emei.vilasantarosa@smed.prefpoa.com.br            ";"http://websmed.portoalegre.rs.gov.br/escolas/vilasantarosa/                                         ";"SANTA ROSA                    "
2018;43;4314902;"EMEI HUMAITA";43175147;"R DR CAIO BRANDAO DE MELLO";"1";"HUMAITA";"HUMAITA";90250110;"51";"33744223";"-";"33744223";"-29.9804";"-51.1855";"emei.humaita@smed.prefpoa.com.br                  ";"http://websmed.portoalegre.rs.gov.br/escolas/humaita                                                ";"HUMAITÁ                       "
2018;43;4314902;"EMEI PONTA GROSSA";43175139;"ESTR RETIRO DA PONTA GROSSA";"3581";"-";"PONTA GROSSA";91780590;"51";"32464812";"-";"32464812";"-30.185";"-51.2103";"emei.pontagrossa@smed.prefpoa.com.br              ";"http://websmed.portoalegre.rs.gov.br/escolas/pgrossa/                                               ";"PONTA GROSSA                  "
2018;43;4314902;"EMEI DA VILA VALNERI ANTUNES";43177026;"AV MARTIM FELIX BERTA";"2353";"VILA VALNERI ANTUNES";"RUBEM BERTA";91270650;"51";"33876077";"-";"33876077";"-30.0304";"-51.112";"emei.vilavalneriantunes@smed.prefpoa.com.br       ";"http://websmed.portoalegre.rs.gov.br/escolas/valneriantunes/                                        ";"VALNERI                       "
2018;43;4314902;"EMEI OSMAR DOS SANTOS FREITAS";43181112;"BC UM RUA DONA OTILIA";"497";"SANTA TEREZA";"SANTA TEREZA";90830582;"51";"32666766";"32666646";"32666766";"-30.0805";"-51.2279";"emei.osmarfreitas@smed.prefpoa.com.br             ";"http://websmed.portoalegre.rs.gov.br/escolas/osmarsantos/                                           ";"OSMAR FREITAS                 "
2018;43;4314902;"EMEI PAULO FREIRE";43181376;"AV MERIDIONAL";"0";"ESQUINA RUA TOBAGO";"RESTINGA";91790070;"51";"32502430";"32507261";"-";"-30.1561";"-51.1381";"emei.paulofreire@smed.prefpoa.com.br              ";"http://websmed.portoalegre.rs.gov.br/escolas/paulofreire/                                           ";"PAULO FREIRE                  "
2018;43;4314902;"EMEI MAMAE CORUJA";43185401;"AV BENTO GONCALVES";"642";"-";"AZENHA";90650000;"51";"32310488";"-";"32310488";"-30.0519";"-51.2066";"mamaecoruja@smed.prefpoa.com.br                   ";"http://websmed.portoalegre.rs.gov.br/escolas/mamaecoruja/                                           ";"MAMÃE CORUJA                  "
2018;43;4314902;"EMEI MIGUEL GRANATO VELASQUEZ";43048196;"R ARMANDO COSTA";"0";"LOTEAMENTO BONANZA";"SARANDI";91120450;"51";"33440759";"-";"-";"-29.9821";"-51.1239";"miguelvelasquez@smed.prefpoa.com.br               ";"                                                                                                    ";"MIGUEL VELASQUEZ              "
2018;43;4314902;"EMEI SANTO EXPEDITO";43141790;"R SANTO EXPEDITO";"0";"-";"RUBEM BERTA";91180265;"51";"33656802";"-";"-";"-30.0074";"-51.1004";"liaf.fadini@smed.prefpoa.com.br                   ";"                                                                                                    ";"SANTO EXPEDITO                "
2018;43;4314902;"EMEF AFONSO GUERREIRO LIMA";43105440;"R GUAIBA-LOMBA DO PINHEIRO";"203";"PARADA 11";"LOMBA PINHEIRO";91560640;"51";"33191011";"-";"33191011";"-30.111348";"-51.112296";"emef.afonsoguerreiro@smed.prefpoa.com.br          ";"http://websmed.portoalegre.rs.gov.br/escolas/guerreiro/                                             ";"AFONSO                        "
2018;43;4314902;"EMEF SEN ALBERTO PASQUALINI";43107842;"R TEN ARIZOLY FAGUNDES";"250";"QUARTA UNIDADE";"RESTINGA";91790520;"51";"32501648";"-";"32501648";"-30.152845";"-51.143479";"emef.albertopasqualini@smed.prefpoa.com.br        ";"http://websmed.portoalegre.rs.gov.br/escolas/pasqualini/                                            ";"PASQUALINI                    "
2018;43;4314902;"EMEF AMERICA";43105459;"RUA PADRE ANGELO COSTA";"175";"VILA VARGAS";"PARTENON";91520161;"51";"33181076";"-";"33181076";"-30.078504";"-51.167847";"emef.america@smed.prefpoa.com.br                  ";"http://websmed.portoalegre.rs.gov.br/escolas/america/                                               ";"AMÉRICA                       "
2018;43;4314902;"EMEF ARAMY SILVA";43105467;"R CHICO PEDRO";"390";"CAMAQUA";"CAMAQUA";91910650;"51";"32413382";"-";"32413382";"-30.097866";"-51.241577";"emef.aramysilva@smed.prefpoa.com.br               ";"http://websmed.portoalegre.rs.gov.br/escolas/aramy/                                                 ";"ARAMY                         "
2018;43;4314902;"EMEF DECIO MARTINS COSTA";43105475;"R CRISTOVAO JAQUES";"488";"-";"SARANDI";91140420;"51";"33472935";"-";"33472935";"-29.988972";"-51.107087";"emef.deciocosta@smed.prefpoa.com.br               ";"http://websmed.portoalegre.rs.gov.br/escolas/decio/                                                 ";"DÉCIO                         "
2018;43;4314902;"EMEF DOLORES ALCARAZ CALDAS";43105483;"R DR CARLOS NIEDERAUER HOFMEISTER";"85";"-";"RESTINGA";91790020;"51";"32501609";"-";"32501609";"-30.151252";"-51.137753";"emef.dolorescaldas@smed.prefpoa.com.br            ";"http://websmed.portoalegre.rs.gov.br/escolas/dolores/                                               ";"DOLORES                       "
2018;43;4314902;"EMEF PROF GILBERTO JORGE GONCALVES DA SILVA";43109071;"R MORRO ALTO";"433";"-";"IPANEMA";91751650;"51";"32464603";"-";"32464603";"-30.137165999999997";"-51.211226999999994";"emef.gilbertojorge@hotmail.com                    ";"http://websmed.portoalegre.rs.gov.br/escolas/gjorge/                                                ";"GILBERTO JORGE                "
2018;43;4314902;"EMEF GRANDE ORIENTE DO RGS";43108571;"R WOLFRAM METZLER";"600";"-";"RUBEM BERTA";91250320;"51";"33661602";"-";"33661602";"-30.024317";"-51.104082";"emef.grandeoriente@smed.prefpoa.com.br            ";"http://websmed.portoalegre.rs.gov.br/escolas/oriente/                                               ";"GRANDE ORIENTE                "
2018;43;4314902;"EMEF GOV ILDO MENEGHETTI";43107508;"R JAYME CYRINO MACHADO DE OLIVEIRA";"250";"RUBEM BERTA";"RUBEM BERTA";91160060;"51";"33673218";"-";"33673218";"-29.993514";"-51.105236";"emef.ildomeneghetti@smed.prefpoa.com.br           ";"http://websmed.portoalegre.rs.gov.br/escolas/ildo/                                                  ";"ILDO                          "
2018;43;4314902;"EMEF JOSE LOUREIRO DA SILVA";43105491;"AV CAPIVARI";"1999";"-";"CRISTAL";90810070;"51";"32665175";"-";"32665175";"-30.082424";"-51.232502";"emef.loureiro@escolas.prefpoa.com.br              ";"http://websmed.portoalegre.rs.gov.br/escolas/loureiro/                                              ";"LOUREIRO                      "
2018;43;4314902;"EMEF PRES JOAO BELCHIOR MARQUES GOULART";43108563;"R JOAO LUIZ PUFAL";"100";"VILA ELIZABETH";"SARANDI";91120530;"51";"33644223";"-";"33644223";"-29.979264999999998";"-51.126152999999995";"emef.joaogoulart@smed.prefpoa.com.br              ";"http://websmed.portoalegre.rs.gov.br/escolas/goulart/                                               ";"JOÃO GOULART                  "
2018;43;4314902;"EMEF PROF JUDITH MACEDO DE ARAUJO";43109055;"R SAUL CONSTANTINO VL SJ COMUNITARIA";"100";"SAO JOSE";"SAO JOSE";91520716;"51";"33851308";"-";"33851308";"-30.076075";"-51.163616999999995";"emef.judithdearaujo@smed.prefpoa.com.br           ";"http://websmed.portoalegre.rs.gov.br/escolas/judith/                                                ";"JUDITH                        "
2018;43;4314902;"EMEF PROF LARRY JOSE RIBEIRO ALVES";43109098;"AV ECON NILO WULFF";"1000";"S/N";"RESTINGA";91790000;"51";"32501656";"-";"32501656";"-30.15065";"-51.143603";"emef.larry@smed.prefpoa.com.br                    ";"http://websmed.portoalegre.rs.gov.br/escolas/larry/                                                 ";"LARRY ALVES                   "
2018;43;4314902;"EMEF LEOCADIA FELIZARDO PRESTES";43109063;"R ROMEU DE VASCONCELLOS ROSA";"10";"LOTEAMENTO DO SALSO";"VILA NOVA";91751370;"51";"32464648";"-";"32464648";"-30.129188";"-51.216406";"emef.leocadiaprestes@smed.prefpoa.com.br          ";"http://websmed.portoalegre.rs.gov.br/escolas/leocadia/                                              ";"LEOCÁDIA                      "
2018;43;4314902;"EMEB DR LIBERATO SALZANO VIEIRA DA CUNHA";43105505;"R XAVIER DE CARVALHO";"274";"-";"SARANDI";91110440;"51";"33641065";"-";"33641065";"-29.993935";"-51.133246";"emeb.liberatosalzano@smed.prefpoa.com.br          ";"http://websmed.portoalegre.rs.gov.br/escolas/liberato/                                              ";"LIBERATO                      "
2018;43;4314902;"EMEF VER MARTIM ARANHA";43109101;"R CONEGO PAULO ISIDORO DE NADAL";"1";"SANTA TERESA";"SANTA TEREZA";90830540;"51";"32666228";"-";"32666228";"-30.085076";"-51.228443";"emef.martimaranha@smed.prefpoa.com.br             ";"http://websmed.portoalegre.rs.gov.br/escolas/martim/                                                ";"MARTIM ARANHA                 "
2018;43;4314902;"EMEF NOSSA SENHORA DE FATIMA";43105513;"R A VILA N S FATIMA-DIVINEIA";"15";"-";"BOM JESUS";91420701;"51";"33383695";"-";"33383695";"-30.046837";"-51.158048";"emef.fatima@smed.prefpoa.com.br                   ";"http://websmed.portoalegre.rs.gov.br/escolas/fatima/                                                ";"FÁTIMA                        "
2018;43;4314902;"EMEF PEPITA DE LEAO";43105521;"R ESTADIO";"29";"-";"PASSO DAS PEDRAS";91230030;"51";"33441522";"-";"33441522";"-30.015379";"-51.128178";"emef.pepitadeleao@smed.prefpoa.com.br             ";"http://websmed.portoalegre.rs.gov.br/escolas/pepita/                                                ";"PEPITA                        "
2018;43;4314902;"EMEF PRESIDENTE VARGAS";43105530;"RUA ANA AURORA DO AMARAL LISBOA";"60";"-";"PASSO DAS PEDRAS";91230000;"51";"33481732";"-";"33481732";"-30.016683";"-51.12712";"emef.presidentevargas@smed.prefpoa.com.br         ";"http://websmed.portoalegre.rs.gov.br/escolas/presidente/                                            ";"PRESIDENTE                    "
2018;43;4314902;"EMEF HEITOR VILLA LOBOS";43105548;"AV SANTO DIAS DA SILVA";"1";"VILA MAPA";"LOMBA PINHEIRO";91550500;"51";"33191413";"-";"33191413";"-30.095022";"-51.137694";"emef.villalobos@smed.prefpoa.com.br               ";"http://websmed.portoalegre.rs.gov.br/escolas/villalobos/                                            ";"VILLA                         "
2018;43;4314902;"EMEF JOAO ANTONIO SATTE";43109217;"AV GAMAL ABDEL NASSER";"500";"-";"RUBEM BERTA";91170001;"51";"33675453";"-";"33675453";"-29.999548";"-51.092938";"emef.joaosatte@smed.prefpoa.com.br                ";"http://websmed.portoalegre.rs.gov.br/escolas/joaosatte/satte/                                       ";"JOÃO SATTE                    "
2018;43;4314902;"EMEF PROF ANA IRIS DO AMARAL";43109195;"AV MARIO MENEGHETTI";"1000";"-";"MORRO SANTANA";91260190;"51";"33862690";"-";"33862690";"-30.031062";"-51.125223";"emef.anairis@smed.prefpoa.com.br                  ";"http://websmed.portoalegre.rs.gov.br/escolas/anairis/                                               ";"ANA IRIS                      "
2018;43;4314902;"EMEF JOSE MARIANO BECK";43169490;"AV JOAQUIM PORTO VILLANOVA";"135";"VILA PINTO";"JARDIM CARVALHO";91410400;"51";"33383985";"-";"33383985";"-30.048134";"-51.156208";"emef.marianobeck@smed.prefpoa.com.br              ";"http://websmed.portoalegre.rs.gov.br/escolas/mariano/                                               ";"MARIANO                       "
2018;43;4314902;"EMEF VER CARLOS PESSOA DE BRUM";43109080;"R ABOLICAO";"1";"RESTINGA VELHA";"RESTINGA";91790130;"51";"32501698";"-";"32501698";"-30.156746";"-51.135767";"emef.pessoadebrum@smed.prefpoa.com.br             ";"http://websmed.portoalegre.rs.gov.br/escolas/pessoa/                                                ";"PESSOA DE BRUM                "
2018;43;4314902;"EMEEF PROF ELYSEU PAGLIOLI";43179002;"R BUTUI";"221";"-";"CRISTAL";90820150;"51";"32414985";"-";"32414985";"-30.086837";"-51.238018";"emeef.elyseupaglioli@smed.prefpoa.com.br          ";"http://websmed.portoalegre.rs.gov.br/escolas/elyseu/                                                ";"ELYSEU PAGLIOLI               "
2018;43;4314902;"EMEF GABRIEL OBINO";43109233;"AV ENG LUDOLFO BOEHL";"1402";"GLORIA";"CASCATA";91720150;"51";"33155928";"-";"33155928";"-30.083766";"-51.200002";"emef.gabrielobino@smed.prefpoa.com.br             ";"http://websmed.portoalegre.rs.gov.br/escolas/obino/                                                 ";"GABRIEL OBINO                 "
2018;43;4314902;"EMEF VER ANTONIO GIUDICE";43172482;"R DR CAIO BRANDAO DE MELLO";"1";"-";"HUMAITA";90250110;"51";"33741808";"-";"33741808";"-29.980423";"-51.185486";"emef.antoniogiudice@smed.prefpoa.com.br           ";"http://websmed.portoalegre.rs.gov.br/escolas/giudice/                                               ";"ANTÔNIO GIÚDICE               "
2018;43;4314902;"EMEF LAURO RODRIGUES";43109209;"R DR MARINO ABRAHAO";"240";"-";"PASSO DAS PEDRAS";91230260;"51";"33481132";"-";"33481132";"-30.018017";"-51.123867";"emef.laurorodrigues@smed.prefpoa.com.br           ";"http://websmed.portoalegre.rs.gov.br/escolas/lauro/                                                 ";"LAURO RODRIGUES               "
2018;43;4314902;"EMEF LIDOVINO FANTON";43109144;"R MANOEL FARIA DA ROSA PRIMO";"940";"RESTINGA VELHA";"RESTINGA";91790770;"51";"32501702";"-";"32501702";"-30.1611";"-51.1437";"escolalidovinofanton@gmail.com                    ";"http://websmed.portoalegre.rs.gov.br/escolas/lidovino/                                              ";"LIDOVINO                      "
2018;43;4314902;"EMEEF PROF LYGIA MORRONE AVERBUCK";43178995;"R SAO JOSEMARIA ESCRIVA";"0";"S/N";"JARDIM DO SALSO";91410000;"51";"33381518";"33383286";"33381518";"-30.054371";"-51.166291";"emeef.lygiaaverbuck@smed.prefpoa.com.br           ";"http://websmed.portoalegre.rs.gov.br/escolas/lygia/                                                 ";"LYGIA                         "
2018;43;4314902;"EMEF DEP MARCIRIO GOULART LOUREIRO";43109128;"R SAIBREIRA";"1";"-";"CEL AP BORGES";91510350;"51";"33156069";"-";"33156069";"-30.076641";"-51.173593";"emef.marcirioloureiro@smed.prefpoa.com.br         ";"http://websmed.portoalegre.rs.gov.br/escolas/marcirio/                                              ";"MARCÍRIO                      "
2018;43;4314902;"EMEF DEP VICTOR ISSLER";43109225;"R DEZENOVE DE FEVEREIRO";"330";"PROTASIO ALVES";"MARIO QUINTANA";91270450;"51";"33862097";"-";"32895838";"-30.035412";"-51.116866";"emef.victorissler@smed.prefpoa.com.br             ";"http://websmed.portoalegre.rs.gov.br/escolas/victor/                                                ";"VICTOR ISSLER                 "
2018;43;4314902;"EMEEF PROF LUIZ FRANCISCO LUCENA BORGES";43179010;"R CLAUDIO MANOEL DA COSTA";"270";"-";"JAR ITU SABARA";91210250;"51";"33383350";"33893304";"33383350";"-30.034029999999998";"-51.146037";"emeef.lucenaborges@smed.prefpoa.com.br            ";"http://websmed.portoalegre.rs.gov.br/escolas/lucena/                                                ";"LUCENA                        "
2018;43;4314902;"EMEF JEAN PIAGET";43172474;"AV MAJOR MANOEL JOSE MONTEIRO";"1";"-";"RUBEM BERTA";91170570;"51";"33662480";"-";"33662480";"-30.004744";"-51.094988";"emef.jeanpiaget@smed.prefpoa.com.br               ";"http://websmed.portoalegre.rs.gov.br/escolas/jeanpiaget                                             ";"JEAN PIAGET                   "
2018;43;4314902;"EMEF PROF ANISIO TEIXEIRA";43172490;"R FRANCISCO MATTOS TERRES";"40";"JARDIM URUBATA";"HIPICA";91755070;"51";"32641540";"-";"32641540";"-30.159502";"-51.200323";"emef.anisioteixeira@smed.prefpoa.com.br           ";"http://websmed.portoalegre.rs.gov.br/escolas/anisio/                                                ";"ANÍSIO                        "
2018;43;4314902;"EMEEF TRISTAO SUCUPIRA VIANNA";43179029;"AV ECON NILO WULFF";"955";"RESTINGA";"RESTINGA";91790000;"51";"32501527";"-";"32501527";"-30.150062";"-51.145814";"emeef.tristaovianna@smed.prefpoa.com.br           ";"http://websmed.portoalegre.rs.gov.br/escolas/tristao/                                               ";"TRISTÃO                       "
2018;43;4314902;"EMEF SAO PEDRO";43167535;"BC TAQUARA";"1190";"-";"LOMBA PINHEIRO";91570730;"51";"33191206";"-";"33191206";"-30.112839";"-51.101099";"emef.saopedro@smed.prefpoa.com.br                 ";"http://websmed.portoalegre.rs.gov.br/escolas/saopedro/                                              ";"SAO PEDRO                     "
2018;43;4314902;"EMEF SAINT HILAIRE";43167179;"R GERVAZIO BRAGA PINHEIRO";"427";"-";"LOMBA PINHEIRO";91570490;"51";"33191629";"-";"33191629";"-30.123316";"-51.09774899999999";"emef.sainthilaire@smed.prefpoa.com.br             ";"http://websmed.portoalegre.rs.gov.br/escolas/sainthilaire/                                          ";"SAINT HILAIRE                 "
2018;43;4314902;"EMEF WENCESLAU FONTOURA";43173721;"R IRMA INES FAVERO";"1";"-";"MARIO QUINTANA";91250095;"51";"32895847";"-";"33662911";"-30.026232";"-51.099245";"emef.wenceslaufontoura@smed.prefpoa.com.br        ";"http://websmed.portoalegre.rs.gov.br/escolas/wenceslau/                                             ";"WENCESLAU                     "
2018;43;4314902;"EMEF CAMPOS DO CRISTAL";43173713;"BC IMPERIO";"75";"-";"VILA NOVA";91787415;"51";"32452077";"-";"32452077";"-30.119204";"-51.200836";"emef.camposdocristal@smed.prefpoa.com.br          ";"http://websmed.portoalegre.rs.gov.br/escolas/campos/                                                ";"CAMPOS                        "
2018;43;4314902;"EMEF MIGRANTES";43177018;"AVENIDA SEVERO DULLIUS";"165";"-";"ANCHIETA";90200310;"51";"33711316";"-";"33711316";"-29.986893";"-51.157797";"emef.migrantes@smed.prefpoa.com.br                ";"http://websmed.portoalegre.rs.gov.br/escolas/migrantes                                              ";"MIGRANTES                     "
2018;43;4314902;"EMEF VILA MONTE CRISTO";43175120;"RUA CARLOS SUPERTI";"84";"-";"VILA NOVA";91750020;"51";"32464659";"-";"32464659";"-30.122343";"-51.217897";"emef.montecristo@smed.prefpoa.com.br              ";"http://websmed.portoalegre.rs.gov.br/escolas/montecristo/index.htm                                  ";"MONTE CRISTO                  "
2018;43;4314902;"EMEF MORRO DA CRUZ";43177034;"R SANTA TERESA VL SAO JOSE COMUNITARIA";"541";"-";"SAO JOSE";91520713;"51";"33181668";"-";"33181668";"-30.078214";"-51.160646";"emef.morrodacruz@smed.prefpoa.com.br              ";"http://websmed.portoalegre.rs.gov.br/escolas/morrodacruz/index.htm                                  ";"MORRO DA CRUZ                 "
2018;43;4314902;"EMEF NEUSA GOULART BRIZOLA";43177042;"R MONSENHOR RUBEN NEIS";"430";"-";"CAVALHADA";91920243;"51";"32469999";"-";"32469999";"-30.117427";"-51.228305";"emef.neusabrizola@smed.prefpoa.com.br             ";"http://websmed.portoalegre.rs.gov.br/escolas/neusa/                                                 ";"NEUSA GOULART BRIZOLA         "
2018;43;4314902;"EMEF PORTO ALEGRE";43177050;"R WASHINGTON LUIZ";"203";"CENTRO";"CENTRO HISTORIC";90010460;"51";"32274429";"-";"32274429";"-30.036346";"-51.238353";"emef.portoalegre@smed.prefpoa.com.br              ";"http://websmed.portoalegre.rs.gov.br/escolas/epa/                                                   ";"EPA                           "
2018;43;4314902;"EMEF CHICO MENDES";43177581;"R GENTIL AMANCIO CLEMENTE";"1";"-";"MORRO SANTANA";91270315;"51";"33876400";"-";"33876400";"-30.032013999999997";"-51.112646";"emef.chicomendes@smed.prefpoa.com.br              ";"http://websmed.portoalegre.rs.gov.br/escolas/chico/                                                 ";"CHICO MENDES                  "
2018;43;4314902;"EMEF MARIO QUINTANA";43183018;"R C VILA CASTELO";"1";"-";"RESTINGA";91790200;"51";"32505021";"32506342";"32505021";"-30.154052";"-51.132133";"emef.marioquintana@smed.prefpoa.com.br            ";"http://websmed.portoalegre.rs.gov.br/escolas/quintana/                                              ";"MARIO QUINTANA                "
2018;43;4314902;"EMEF CHAPEU DO SOL";43187560;"AV JUCA BATISTA";"0";"-";"CHAPEU DO SOL";91786300;"51";"32683318";"-";"32683318";"-30.165145999999996";"-51.162268";"emef.chapeudosol@smed.prefpoa.com.br              ";"http://websmed.portoalegre.rs.gov.br/escolas/chapeu/                                                ";"CHAPÉU DO SOL                 "
2018;43;4314902;"EMEF TIMBAUVA";43189253;"RUA SEIS";"0";"TIMBAUVA 1";"MARIO QUINTANA";91250000;"51";"33685355";"33563602";"33685355";"-30.021697";"-51.095315";"emef.timbauva@smed.prefpoa.com.br                 ";"http://websmed.portoalegre.rs.gov.br/escolas/timbauva/                                              ";"TIMBAÚVA                      "
2018;43;4314902;"EMEF NOSSA SENHORA DO CARMO";43204643;"R BISPO MARINO PRUDENCIO MOREIRA";"95";"5 UNIDADE";"RESTINGA";91790206;"51";"32614364";"-";"32614364";"-30.145269";"-51.127824";"emefdocarmo@hotmail.com                           ";"http://websmed.portoalegre.rs.gov.br/escolas/carmo                                                  ";"N Sª DO CARMO                 "
2018;43;4314902;"EMEF DE SURDOS BILINGUE SALOMAO WATNICK";43241000;"RUA CAPITAO PEDRO WERLANG";"1011";"-";"INTERCAP";91530110;"51";"33881125";"-";"33881125";"-30.063525";"-51.152634";"salomao@pmpa.ad                                   ";"http://websmed.portoalegre.rs.gov.br/escolas/salomaowatnick/                                        ";"SALOMÃO WATNICK               "
2018;43;4314902;"EMEF RINCAO";43293050;"BC UM RUA LUIZ OTAVIO";"347";"LOTEAMENTO RINCAO";"BELEM VELHO";91787331;"51";"32895831";"-";"32615676";"-30.118968";"-51.160911";"emef.rincao@smed.prefpoa.com.br                   ";"http://websmed.portoalegre.rs.gov.br/escolas/rincao/                                                ";"RINCÃO                        "
2018;43;4314902;"EMEF MORADAS DA HIPICA";43293069;"R GERALDO TOLLENS LINCK";"0";"-";"HIPICA";91787214;"51";"33122426";"-";"32895829";"-30.159039";"-51.171096999999996";"moradasdahipica@gmail.com                         ";"http://websmed.portoalegre.rs.gov.br/escolas/moradasdahipica/index.htm                              ";"HÍPICA                        "
2018;43;4314902;"EMEF PORTO NOVO";43048200;"R AMELIA SANTINI FORTUNATI";"101";"PORTO NOVO";"STA ROSA LIMA";91160810;"51";"33810112";"-";"-";"-30.000227";"-51.107264";"portonovo@smed.prefpoa.com.br                     ";"                                                                                                    ";"EMEF PORTO NOVO               "
2018;43;4314902;"EMEM EMILIO MEYER";43105246;"AV NITEROI";"472";"-";"MEDIANEIRA";90880270;"51";"32192608";"-";"32192608";"-30.0692642";"-51.2079796";"emem.emiliomeyer@smed.prefpoa.com.br              ";"www.emiliomeyer.com                                                                                 ";"EMÍLIO MEYER                  "
2018;43;4314902;"CMET PAULO FREIRE";43177000;"R SANTA TEREZINHA";"572";"-";"SANTANA";90040180;"51";"32250804";"-";"-";"-30.041977";"-51.209679";"cmet.paulofreire@smed.prefpoa.com.br              ";"http://websmed.portoalegre.rs.gov.br/escolas/cmet/                                                  ";"CMET                          "
2018;43;4314902;"5001 IEI MAEZINHA DO CEU";43190499;"R VINTE CINCO DE OUTUBRO";"295";"VILA ASA BRANCA";"SARANDI";91140500;"51";"33668700";"-";"33668700";"-29.9842836";"-51.1213051";"crechemaezinhadoceu@bol.com.br                    ";"                                                                                                    ";"5001 MÃEZINHA DO CÉU          "
2018;43;4314902;"5002 IEI JOAO PAULO II";43190456;"R FREDERICO MENTZ";"118";"-";"FARRAPOS";90250370;"51";"33742675";"-";"-";"-29.9784852";"-51.1964513";"CRECHEJOAOPAULOLL@YAHOO.COM.BR                    ";"                                                                                                    ";"5002 JOÃO PAULO II            "
2018;43;4314902;"5003 EEI ESTRELINHA DO CEU";43185304;"R ULYSSES DE ALENCASTRO BRANDAO";"205";"-";"SARANDI";91140400;"51";"33645165";"-";"-";"-29.9896111";"-51.1196226";"creche.estrelinha@hotmail.com                     ";"                                                                                                    ";"5003 ESTRELINHA DO CÉU        "
2018;43;4314902;"5004 EEI ESTRELINHA DO AMANHA";43185495;"AV DONARIO BRAGA";"159";"-";"RUBEM BERTA";91160360;"51";"33340223";"-";"-";"-29.99812";"-51.0998618";"rosemarycentena@hotmail.com                       ";"                                                                                                    ";"5004 ESTRELINHA DO AMANHÃ     "
2018;43;4314902;"5005 IEI VILA UNIAO";43189075;"AV VINTE UM DE ABRIL";"1470";"-";"SARANDI";91120630;"51";"33644456";"-";"-";"-29.9794081";"-51.1299406";"clube.uniao@terra.com.br                          ";"                                                                                                    ";"5005 VILA UNIÃO               "
2018;43;4314902;"5006 EEI TRENZINHO DA ALEGRIA";43189059;"R SENHOR DO BOM FIM";"956";"-";"SARANDI";91140380;"51";"33655844";"-";"30235664";"-29.985650999999997";"-51.1152988";"e.eita@ig.com.br                                  ";"                                                                                                    ";"5006 TRENZINHO DA ALEGRIA     "
2018;43;4314902;"5007 IEI EUGENIA CONTE";43185398;"RUA K";"120";"VILA NOVA SANTA ROSA";"RUBEM BERTA";91160170;"51";"33673267";"-";"33673267";"-29.9943402";"-51.1057893";"CIEC.SECRETARIA@GMAIL.COM                         ";"                                                                                                    ";"5007 EUGENIA CONTE            "
2018;43;4314902;"5008 EEI JOANA DARC";43189024;"R VINTE QUATRO DE AGOSTO VL MINUANO";"375";"VILA MINUANO";"SARANDI";91110560;"51";"33508487";"-";"30263320";"-29.9908941";"-51.137896299999994";"escola_joanadarc@hotmail.com                      ";"                                                                                                    ";"5008 JOANA DARC               "
2018;43;4314902;"5009 IEI SANTA CATARINA";43188141;"R JOSUE DE CASTRO";"290";"-";"SARANDI";91120110;"51";"33658244";"33646177";"33657118";"-29.978445";"-51.1369299";"SANTACATARINA290@HOTMAIL.COM                      ";"                                                                                                    ";"5009 SANTA CATARINA           "
2018;43;4314902;"5010 IEI ACOMPAR NUCLEO II - SANTO AGOSTINHO";43190588;"AV CALDEIA";"210";"VILA SANTO AGOSTINHO";"SARANDI";91130540;"51";"34145931";"-";"98608639";"-29.9854438";"-51.1084677";"NUCLEO2@ACOMPAR.ORG                               ";"                                                                                                    ";"5010 ACOMPAR - II             "
2018;43;4314902;"5011 IEI MARIA DE NAZARE";43190367;"BC C VILA NAZARETH";"16";"ACESSO 2";"SARANDI";91060460;"51";"33440344";"-";"33440201";"0.0";"0.0";"ieiman@terra.com.br                               ";"                                                                                                    ";"5011 MARIA NAZARE             "
2018;43;4314902;"5012 EEI JESUS O BOM PASTOR";43190685;"R DONA TEODORA";"160";"LOT BELA VISTA";"FARRAPOS";90240300;"51";"30241793";"-";"33746109";"-29.9888326";"-51.2020304";"comulherliberdade@gmail.com                       ";"                                                                                                    ";"5012 JESUS O BOM PASTOR       "
2018;43;4314902;"5013 IEI SANTA LUIZA";43185410;"R IRMA MARIA JOSE TREVISAN";"30";"-";"FARRAPOS";90250430;"51";"33744986";"-";"33748250";"-29.9801785";"-51.1944606";"obrasocialsluiza@gmail.com                        ";"                                                                                                    ";"5013 SANTA LUIZA              "
2018;43;4314902;"5016 IEI OSICOM I";43187820;"R JOSEFA BARRETO";"302";"-";"PASSO DAS PEDRAS";91230080;"51";"33445159";"-";"33475112";"-30.0163844";"-51.1266233";"osicomimc@gmail.com                               ";"                                                                                                    ";"5016 OSICOM I                 "
2018;43;4314902;"5017 EEI NEGRINHO DO PASTOREIO";43185525;"R WOLFRAM METZLER";"21";"-";"RUBEM BERTA";91250320;"51";"33665808";"-";"98541219";"-30.0230287";"-51.1066541";"escolanegrinhopastoreio@gmail.com                 ";"                                                                                                    ";"5017 NEGRINHO DO PASTOREIO    "
2018;43;4314902;"5018 IEI ESPERANCA CORDEIRO";43188559;"R JULIO STREGUE";"55";"-";"SARANDI";91180030;"51";"33488086";"-";"-";"-29.9947196";"-51.1300714";"esperancacordeiro@superig.com.br                  ";"                                                                                                    ";"5018 ESPERANÇA CORDEIRO       "
2018;43;4314902;"5019 IEI VOVO CAZEMIRO";43185266;"R CRUZEIRO DO SUL";"702";"-";"SANTA TEREZA";90840000;"51";"32666200";"-";"32666200";"-30.084479299999998";"-51.23015289999999";"tgutterres@acm-rs.com.br                          ";"                                                                                                    ";"5019 VOVÔ CAZEMIRO            "
2018;43;4314902;"5020 EEI MADRE TERESA";43185541;"R WOLFRAM METZLER";"605";"-";"RUBEM BERTA";91250320;"51";"33663177";"-";"-";"-30.0245675";"-51.1034946";"iemadreteresa@gmail.com                           ";"                                                                                                    ";"5020 MADRE TERESA             "
2018;43;4314902;"5021 EEI GALPAOZINHO";43185363;"R DONA BECA";"120";"COND PORTO NOVO";"RUBEM BERTA";91150000;"51";"33741768";"-";"-";"-30.0002273";"-51.1072645";"crechegalpaozinho@gmail.com                       ";"                                                                                                    ";"5021 GALPAOZINHO              "
2018;43;4314902;"5022 EEI MARISTA TIA JUSSARA";43188184;"R SANTA RITA DE CASSIA ILHA MARINHEIROS";"90";"-";"ARQUIPELAGO";90090000;"51";"32031622";"-";"-";"-29.9930901";"-51.2243073";"infantil.tiajussara@maristas.org.br               ";"                                                                                                    ";"5022 TIA JUSSARA - USBEE      "
2018;43;4314902;"5023 EEI VO ANA";43190618;"R JOSE LUIZ MARTINS COSTA";"200";"LOT WENC FONTOURA";"MARIO QUINTANA";91250330;"51";"33668877";"-";"33226052";"-30.0248097";"-51.0997214";"escolavoana@yahoo.com.br                          ";"                                                                                                    ";"5023 VO ANA                   "
2018;43;4314902;"5024 IEI LAR DA CRIANCA MENINO JESUS DE PRAGA";43185169;"R WOLFRAM METZLER";"334";"-";"RUBEM BERTA";91250320;"51";"33664599";"33665322";"-";"-30.0235552";"-51.1047559";"larmjpraga@terra.com.br                           ";"http://www.larmeninojesus.com.br/                                                                   ";"5024 MENINO JESUS DE PRAGA    "
2018;43;4314902;"5026 IEI CRIANCA ESPERANCA";43185568;"R JOAO BRAVO DE ALMEIDA";"101";"-";"SARANDI";91180035;"51";"33484428";"-";"33484428";"-30.0084627";"-51.1237528";"associacao.instituicao@gmail.com                  ";"                                                                                                    ";"5026 CRIANÇA ESPERANÇA        "
2018;43;4314902;"5027 IEI GIRASSOL";43185320;"R WOLFRAM METZLER";"567";"-";"RUBEM BERTA";91250320;"51";"33660296";"-";"33660296";"-30.0245367";"-51.1031299";"clubedemaesrubemberta2@yahoo.com.br               ";"                                                                                                    ";"5027 GIRASSOL                 "
2018;43;4314902;"5028 EEI SAO VICENTE DE PAULO";43187862;"R PEDRO RAUPP";"160";"VILA PLANALTO";"JAR ITU SABARA";91225080;"51";"30721754";"-";"30721754";"-30.0228461";"-51.1331812";"escola_svp@yahoo.com.br                           ";"                                                                                                    ";"5028 CASA CRIANÇA SÃO VICENTE "
2018;43;4314902;"5029 EEI CANTINHO DOS PIAS";43184960;"R THOMAZ FRANCISCO DE JESUS";"412";"-";"JARDIM CARVALHO";91430750;"51";"33387776";"-";"-";"-30.0499294";"-51.1462807";"cantinhodospias@hotmail.com                       ";"                                                                                                    ";"5029 CANTINHO DOS PIÁS        "
2018;43;4314902;"5030 EEI TRES CORACOES";43185371;"R DEZESSEIS VILA MATO SAMPAIO";"623";"-";"BOM JESUS";91420620;"51";"33873108";"92430782";"33512475";"-30.047757";"-51.1623576";"creche3coracoes@gmail.com                         ";"                                                                                                    ";"5030.TRÊS CORAÇÕES            "
2018;43;4314902;"5031 IEI TIA ROSA";43190316;"R CINCO VILA VALNERI ANTUNES";"10";"VILA VALNERI ANTUNES";"MARIO QUINTANA";91260350;"51";"33380586";"-";"-";"-30.0301658";"-51.1094676";"crechetiarosa.valneriantunes@gmail.com            ";"                                                                                                    ";"5031 TIA ROSA                 "
2018;43;4314902;"5032 IEI JERUSALEM - BEITH SHALOM";43190650;"AV. VITORIA";"35";"-";"PASSO DAS PEDRAS";91225040;"51";"33506739";"-";"33506739";"-30.028367";"-51.129723";"diretoria.principedapaz@gmail.com                 ";"                                                                                                    ";"5032 JERUSALÉM-BEITH SHALOM   "
2018;43;4314902;"5033 IEI ALAN MARIA TEREZA";43190383;"AV DEZ DE MAIO";"265";"-";"PASSO DAS PEDRAS";91230480;"51";"33476431";"33477789";"33476431";"-30.023148099999997";"-51.122773599999995";"alanmariatereza@gmail.com                         ";"                                                                                                    ";"5033 TIA MARIA TEREZA         "
2018;43;4314902;"5034 IEI ALAN BOM JESUS";43187471;"R PANAMA";"324";"-";"BOM JESUS";91420200;"51";"33348727";"-";"33386106";"-30.0456783";"-51.1578594";"ong.ligadeamparo@hotmail.com                      ";"                                                                                                    ";"5034 ALAN                     "
2018;43;4314902;"5035 EEI NOSSA SENHORA APARECIDA VILA PINTO";43185274;"R J VILA FATIMA-PINTO";"220";"-";"BOM JESUS";91420120;"51";"30267499";"-";"30267499";"-30.0501193";"-51.1544744";"crechensaparecida@terra.com.br                    ";"                                                                                                    ";"5035 NOSSA SENHORA APARECIDA  "
2018;43;4314902;"5036 EEI MUNDO CRIANCA";43189032;"RUA 4";"62";"-";"MORRO SANTANA";91450430;"51";"33670114";"-";"-";"-30.0455451";"-51.1268365";"mundocrianca2011@hotmail.com                      ";"                                                                                                    ";"5036 MUNDO CRIANÇA            "
2018;43;4314902;"5037 IEI AELCA";43185355;"R GEN SALVADOR PINHEIRO";"799";"-";"VILA JARDIM";91320240;"51";"33346222";"-";"33340822";"-30.0373761";"-51.1505003";"aelca@uol.com.br                                  ";"                                                                                                    ";"5037 AELCA                    "
2018;43;4314902;"5038 IEI NOSSA SENHORA DE FATIMA -BOM JESUS";43185070;"R OITO VILA MATO SAMPAIO";"32";"-";"BOM JESUS";91420591;"51";"33816659";"-";"-";"-30.0495658";"-51.1600356";"instituicaonossasenhoradefatima@hotmail.com       ";"                                                                                                    ";"5038 N S FATIMA BOM JESUS     "
2018;43;4314902;"5040 IEI SAGRADA FAMILIA";43190014;"RUA 05 V. LARANJEIRAS";"174";"-";"MORRO SANTANA";91310001;"51";"991911088";"91284907";"98643399";"-30.0465594";"-51.1293932";"adrianaeellen12@gmail.com.br                      ";"                                                                                                    ";"5040 SAGRADA FAMÍLIA          "
2018;43;4314902;"5041 EEI MENSAGEIROS DA LUZ";43185045;"TRAV CEL ANTONIO CARNEIRO PINTO";"185";"-";"PETROPOLIS";90460020;"51";"33352849";"-";"-";"-30.0396671";"-51.1854302";"mensageirosdaluz1976@hotmail.com                  ";"                                                                                                    ";"41 LAR DO MENOR MENSAGEIROS DA"
2018;43;4314902;"5042 IEI PIU PIU";43185517;"R JACINTO GOMES";"683";"PREDIO 92 - FUNDOS";"SANTANA";90040270;"51";"30296737";"-";"-";"-30.0439076";"-51.2091099";"CRECHEVILAPLANETARIO@GMAIL.COM                    ";"                                                                                                    ";"5042 PIU PIU                  "
2018;43;4314902;"5043 IEI LUPICINIO RODRIGUES";43189067;"R ALMIRANTE ALVARO A DA MOTTA E SILVA";"200";"-";"MENINO DEUS";90160130;"51";"32110416";"-";"-";"-30.0449969";"-51.2202849";"lupi@cepa.org.br                                  ";"                                                                                                    ";"5043 LUPICINIO RODRIGUES      "
2018;43;4314902;"5044 EEI CASA DO PEQUENINO";43187609;"AV AZENHA";"366";"-";"AZENHA";90160004;"51";"32230043";"-";"32231938";"-30.0469886";"-51.2136191";"casapequenino@gmail.com                           ";"                                                                                                    ";"5044 CASA DO PEQUENINO        "
2018;43;4314902;"5045 EEI SOMAI";43190120;"R BOM JESUS";"610";"-";"BOM JESUS";91420030;"51";"33343312";"-";"-";"-30.0436105";"-51.1509089";"creche.somai@yahoo.com.br                         ";"                                                                                                    ";"5045 SOMAI LAR DAS MENINAS    "
2018;43;4314902;"5046 IEI NSA SRA DE FATIMA NOVO MUNDO";43190707;"AV MARTIM FELIX BERTA";"2575";"CHACARA DA FUMACA";"RUBEM BERTA";91270650;"51";"33876460";"-";"33879420";"-30.031179";"-51.1135289";"clubedemaess@terra.com.br                         ";"                                                                                                    ";"5046 N S FATIMA NOVO MUNDO    "
2018;43;4314902;"5048 IEI HELOISA BECKER";43108865;"R SAO MANOEL";"1909";"-";"RIO BRANCO";90620110;"51";"32233714";"-";"-";"-30.0500031";"-51.2006183";"infantillar@hotmail.com                           ";"                                                                                                    ";"5048 HELOISA BECKER           "
2018;43;4314902;"5049 IEI BRINCANDO DE CIRANDA";43184979;"R JOSE MADRID";"736";"-";"JARDIM CARVALHO";91430580;"51";"33814301";"-";"84658476";"-30.0492423";"-51.1509889";"brincandodeciranda@bol.com.br                     ";"                                                                                                    ";"5049 BRINCANDO DE CIRANDA     "
2018;43;4314902;"5050 EEI NSA SRA APARECIDA SAO PEDRO";43190391;"AV IPIRANGA";"5229";"RUA A 435";"PRAIA DE BELAS";90160092;"51";"33841719";"-";"-";"-30.056813";"-51.1869432";"criancasaopedro@bol.com.br                        ";"                                                                                                    ";"5050 NOSSA SENHORA APARECIDA  "
2018;43;4314902;"5051 EEI TURMA DO BARULHO";43185088;"R TANAUI DA SILVA BOEIRA";"209";"-";"LOMBA PINHEIRO";91570440;"51";"30265796";"-";"-";"-30.1227998";"-51.1027429";"ascovipa2008@gmail.com                            ";"                                                                                                    ";"5051 TURMA DO BARULHO         "
2018;43;4314902;"5052 EEI SAO PEDRO";43190049;"R PADRE ROQUE GONZALES-LOMBA PINHEIRO";"315";"-";"LOMBA PINHEIRO";91570170;"51";"31784511";"-";"-";"-30.1155737";"-51.511019681";"ed.infantilsaopedro@gmail.com                     ";"                                                                                                    ";"5052 SÃO PEDRO                "
2018;43;4314902;"5053 IEI BALAO MAGICO";43185312;"R RIO NEGRO - LOMBA DO PINHEIRO";"59";"-";"LOMBA PINHEIRO";91570330;"51";"33360254";"-";"-";"-30.1186663";"-51.510962297";"balaomagicocreche@gmail.com                       ";"                                                                                                    ";"5053 BALÃO MÁGICO             "
2018;43;4314902;"5054 EEI CASA DA CRIANCA ALGODAO DOCE";43183069;"R SAO MARCOS-LOMBA DO PINHEIRO";"150";"-";"LOMBA PINHEIRO";91570380;"51";"30192458";"33198164";"33153777";"-30.1179578";"-51.0971373";"crechealgodaodoce@terra.com.br                    ";"                                                                                                    ";"5054 ALGODÃO DOCE             "
2018;43;4314902;"5055 IEI VOVO IDA";43185207;"R DONA FIRMINA";"1583";"-";"VL JOAO PESSOA";91520210;"51";"33223213";"-";"-";"-30.0759542";"-51.1685722";"vovoida19@gmail.com                               ";"                                                                                                    ";"5055 VOVO IDA                 "
2018;43;4314902;"5056 EEI PAINEIRAS";43185606;"LG PAINEIRAS";"477";"VILA JOAO PESSOA";"VL JOAO PESSOA";91510070;"51";"33529074";"-";"-";"-30.071384899999998";"-51.174784499999994";"crechepaineira@gmail.com                          ";"                                                                                                    ";"5056 PAINEIRAS                "
2018;43;4314902;"5057 EEI CAMPO DA TUCA";43187854;"RUA D";"200";"-";"PARTENON";91510480;"51";"33846118";"-";"33220971";"-30.0709027";"-51.1736134";"creche@campodatuca.org.br                         ";"                                                                                                    ";"5057 CAMPO DA TUCA            "
2018;43;4314902;"5058 EEI TOPO GIGIO";43185649;"R SAO JOSE VILA SAO JOSE COMUNITARIA";"29";"-";"SAO JOSE";91520470;"51";"33158057";"-";"33181580";"-30.0772698";"-51.1638843";"escolatopogigio@gmail.com                         ";"                                                                                                    ";"5058 TOPO GIGIO               "
2018;43;4314902;"5059 EEI ACOMUR";43185592;"R VIDAL DE NEGREIROS";"996";"-";"SAO JOSE";91520480;"51";"33183231";"-";"-";"-30.0703867";"-51.1671969";"acomur@hotmail.com                                ";"                                                                                                    ";"5059 ACOMUR                   "
2018;43;4314902;"5060 IEI MURIALDO";43190308;"TRAV SAO JOAO";"57";"-";"SAO JOSE";91520560;"51";"33152960";"-";"33183119";"-30.073057199999997";"-51.1637132";"creche@murialdopoasocial.org.br                   ";"                                                                                                    ";"5060 MURIALDO                 "
2018;43;4314902;"5061 IEI VO BELINHA";43185436;"R MIGUEL OLVICTO DOS SANTOS";"71";"VILA MAPA";"LOMBA PINHEIRO";91550280;"51";"33521742";"33521742";"-";"-30.0972645";"-51.136052";"                                                  ";"                                                                                                    ";"5061 VÓ BELINHA               "
2018;43;4314902;"5062 IEI ESTRELA MAGICA";43185614;"R SANTA CATARINA ESTR JOAO DE O REMIAO";"30";"PARADA 15";"LOMBA PINHEIRO";91560000;"51";"33520881";"-";"-";"-30.1219697";"-51.1085822";"crecheestrelamagica@hotmail.com                   ";"                                                                                                    ";"5062 ESTRELA MÁGICA           "
2018;43;4314902;"5063 IEI NOSSA SENHORA APARECIDA -VILA PINHAL";43185479;"R ABACATEIRO";"195";"PARADA 14";"LOMBA PINHEIRO";91560480;"51";"33194651";"-";"99544961";"-30.1203592";"-51.1066651";"escolapinhal@hotmail.com                          ";"                                                                                                    ";"5063 Nª S APARECIDA VILA PINHA"
2018;43;4314902;"5064 EEI RECREIO DA DIVISA";43187382;"ESTR JOAO DE OLIVEIRA REMIAO";"6269";"PARADA 15";"LOMBA PINHEIRO";91787750;"51";"33177469";"-";"-";"-30.1237905";"-51.1079968";"recreiodadivisa@gmail.com                         ";"                                                                                                    ";"5064.RECREIO DA DIVISA        "
2018;43;4314902;"5065 IEI ARCO IRIS ENCANTADO";43187781;"R GUAIBA-LOMBA DO PINHEIRO";"95";"-";"LOMBA PINHEIRO";91560640;"51";"30292214";"-";"98179494";"-30.1105187";"-51.1120846";"                                                  ";"                                                                                                    ";"5065 ARCO IRIS ENCANTADO      "
2018;43;4314902;"5066 EEI MEU NENE";43187137;"R ERNESTO LISCANO";"195";"VILA ESMERALDA";"AGRONOMIA";91540310;"51";"33193144";"-";"-";"-30.0882007";"-51.1266516";"cristiane-fogassafonseca@hotmail.com              ";"                                                                                                    ";"5066 MEU NENE                 "
2018;43;4314902;"5067 IEI NOSSA SENHORA DA GLORIA";43187838;"TRAV A VILA NOSSA SENHORA DA GLORIA";"252";"-";"CASCATA";91710151;"51";"33397463";"-";"-";"-30.0780113";"-51.1896033";"crechecomgloria@hotmail.com                       ";"                                                                                                    ";"5067 NOSSA SENHORA DA GLORIA  "
2018;43;4314902;"5069 IEI CRECHE LAR DA CRIANCA";43185185;"R NOSSA SENHORA DO BRASIL-SANTA TERESA";"83";"-";"SANTA TEREZA";90850510;"51";"32320503";"-";"32320793";"-30.0699447";"-51.2224929";"ieicrechelardacrianca@gmail.com                   ";"                                                                                                    ";"5069 LAR DA CRIANÇA           "
2018;43;4314902;"5070 IEI CENEAMM 1 DE MAIO";43185053;"ESTR BARCELLOS";"2268";"-";"CASCATA";91712300;"51";"33184152";"-";"-";"-30.0907206";"-51.179328";"ceneamm@gmail.com                                 ";"                                                                                                    ";"5070 CENEAMM 1 DE MAIO        "
2018;43;4314902;"5071 EEI CRIANCA FELIZ";43190219;"R CANUDOS";"625";"-";"CASCATA";91712340;"51";"33851641";"-";"-";"-30.0935696";"-51.1743931";"asmovica254@gmail.com                             ";"                                                                                                    ";"5071 CRIANÇA FELIZ            "
2018;43;4314902;"5072 IEI AMAVTRON";43185282;"R CAIXA ECONOMICA";"633";"-";"SANTA TEREZA";90840610;"51";"32333150";"32320253";"84329265";"-30.0745487";"-51.2222956";"amavtron@hotmail.com                              ";"                                                                                                    ";"5072 AMAVTRON                 "
2018;43;4314902;"5073 EEI MATO GROSSO";43190405;"R OCTAVIO DE SOUZA";"1818";"-";"TERESOPOLIS";90840350;"51";"32662407";"-";"32417441";"-30.0809394";"-51.2289879";"escolamt2017@gmail.com                            ";"                                                                                                    ";"5073 MATO GROSSO              "
2018;43;4314902;"5074 IEI BOA ESPERANCA";43190537;"R ORFANOTROFIO";"409";"-";"SANTA TEREZA";90840440;"51";"30628064";"-";"-";"-30.0789011";"-51.218418";"secretaria.cencor1@hotmail.com                    ";"                                                                                                    ";"5074 BOA ESPERANÇA            "
2018;43;4314902;"5075 IEI MARIA DOLABELLA PORTELA";43187811;"R DONA OTILIA";"927";"-";"SANTA TEREZA";90830580;"51";"31098325";"32666657";"32666067";"-30.0815506";"-51.22654729999999";"imaculatinaspoa@ig.com.br                         ";"                                                                                                    ";"5075 MARIA DOLABELLA PORTELA  "
2018;43;4314902;"5076 EEI DOM ORIONE";43190570;"R URSA MAIOR";"215";"-";"CRISTAL";90820200;"51";"32665774";"-";"32472773";"-30.0859696";"-51.2324344";"orione@donorione.org.br                           ";"                                                                                                    ";"5076 DOM ORIONE               "
2018;43;4314902;"5077 EEI NOSSA SENHORA DE NAZARE-DOM ORIONE";43190553;"R EUCLIDES DE ALMEIDA";"20";"-";"SANTA TEREZA";90840640;"51";"32412955";"-";"-";"-30.0790974";"-51.2239631";"nazare@donorione.org.br                           ";"                                                                                                    ";"5077 NOSSA SENHORA DE NAZARÉ  "
2018;43;4314902;"5081 EEI BRIZOLINHA";43190502;"AV ARROIO DOS PADRES";"130";"-";"VILA NOVA";91712390;"51";"33223095";"-";"-";"-30.0979033";"-51.1877896";"cecojare@yahoo.com.br                             ";"                                                                                                    ";"5081 BRIZOLINHA               "
2018;43;4314902;"5082 IEI MEDIANEIRA";43185096;"R CAIXA ECONOMICA";"320";"-";"SANTA TEREZA";90840610;"51";"32233558";"-";"-";"-30.0725293";"-51.2235659";"crechemedianeira@gmail.com                        ";"                                                                                                    ";"5082 MEDIANEIRA               "
2018;43;4314902;"5083 EEI CASA DE NAZARE CENTRO DE APOIO AO MENOR";43188206;"R CEL TIMOTEO";"350";"-";"CAMAQUA";91910680;"51";"32429196";"-";"-";"-30.00949777";"-51.2376089";"casadenazare@brturbo.com.br                       ";"                                                                                                    ";"5083 CASA DE NAZARE           "
2018;43;4314902;"5084 EEI CANTINHO DA CRIANCA";43190081;"R ADAO ARAUJO";"81";"-";"CEL AP BORGES";91710560;"51";"33395480";"-";"-";"-30.0755231";"-51.182646";"cantinho.crianca@gmail.com                        ";"                                                                                                    ";"5084 CANTINHO DA CRIANCA      "
2018;43;4314902;"5085 EEI BATILANOS";43190634;"ESTR BATILLANAS";"1005";"-";"CASCATA";91712310;"51";"33184427";"-";"-";"-30.0869465";"-51.1811157";"crechebatilanos@hotmail.com                       ";"                                                                                                    ";"5085 BATILANOS                "
2018;43;4314902;"5086 EEI ARAPEI";43185118;"R ARAPEI";"103";"ACESSO 7";"CRISTAL";90830470;"51";"32410360";"98181552";"-";"-30.0863338";"-51.2294967";"crechearapei@yahoo.com.br                         ";"                                                                                                    ";"5086 ARAPEÍ                   "
2018;43;4314902;"5087 IEI NUCLEO SAO FRANCISCO";43188540;"BC UM RUA CEL TIMOTEO";"465";"CRISTAL";"CAVALHADA";91910000;"51";"32434801";"-";"-";"-30.094817";"-51.238514099999996";"casadenazare@brturbo.com.br                       ";"                                                                                                    ";"5087 NUCLEO SAO FRANCISCO     "
2018;43;4314902;"5088 IEI VINDE A MIM AS CRIANCINHAS";43188036;"ESTR COSTA GAMA";"719";"-";"BELEM VELHO";91787311;"51";"32452506";"-";"32452899";"-30.1196196";"-51.1769797";"amparosc@bol.com.br                               ";"                                                                                                    ";"5088 VINDE A MIM AS CRIANCINHA"
2018;43;4314902;"5089 EEI VO MARIA";43185444;"VILA ORFANOTROFIO II";"54";"BECO 14";"NONOAI";90840440;"51";"32660181";"-";"-";"-30.0865126";"-51.2273637";"crechevomaria@gmail.com                           ";"                                                                                                    ";"5089 VÓ MARIA                 "
2018;43;4314902;"5091 IEI MADRE BRIGIDA POSTORINO";43187803;"BC FLORES VILA TRONCO II";"346";"-";"SANTA TEREZA";90843462;"51";"32666067";"-";"91634346";"-30.0772184";"-51.225752";"imaculatinaspoa@ig.com.br                         ";"                                                                                                    ";"5091 MADRE BRIGIDA POSTORINO  "
2018;43;4314902;"5092 EEI NOSSA SENHORA DA SAUDE";43188079;"R ERECHIM";"1280";"-";"NONOAI";90830000;"51";"32418569";"32597298";"-";"-30.0922284";"-51.214383";"cecovae@yahoo.com.br                              ";"                                                                                                    ";"5092 N  SRA SAUDE             "
2018;43;4314902;"5093 EEI RECANTO DA CRIANCA FELIZ";43185452;"R DEPUTADO CUNHA BUENO";"21";"-";"VILA NOVA";91751270;"51";"32633706";"-";"-";"-30.1292391";"-51.2168936";"cassiapeixoto2407@hotmail.com                     ";"                                                                                                    ";"5093 RECANTO DA CRIANCA FELIZ "
2018;43;4314902;"5097 EEI PASSO A PASSO";43185258;"RUA MORRO ALTO";"485";"-";"ABERTA DOS MORROS";91751650;"51";"985296676";"-";"-";"-30.1366918";"-51.2110045";"GISASKRIESE@GMAIL.COM                             ";"                                                                                                    ";"5097 PASSO A PASSO            "
2018;43;4314902;"5098 EEI MENINO JESUS";43185347;"R PAULO MACIEL";"89";"-";"VILA NOVA";91751350;"51";"32468372";"-";"-";"-30.1293154";"-51.214621599999994";"escmeninojesus89@gmail.com                        ";"                                                                                                    ";"5098 MENINO JESUS             "
2018;43;4314902;"5099 EEI AMIGO SPINELLI";43201377;"R DONA PAULINA";"700";"-";"TRISTEZA";91920030;"51";"32683168";"-";"32669440";"-30.1175854";"-51.246815";"contato@aldeiadafraternidade.org.br               ";"                                                                                                    ";"5099 AMIGO SPINELLI-ALDEIA DA "
2018;43;4314902;"5100 IEI ISABEL VIEIRA";43185240;"RUA NOVA IPANEMA";"34";"-";"HIPICA";91755200;"51";"-";"-";"98453375";"-30.1532525";"-51.2013379";"iceivi@bol.com.br                                 ";"                                                                                                    ";"5100 TIA ISABEL               "
2018;43;4314902;"5101 EEI BEM-ME-QUER";43185223;"R DR JULIO TEIXEIRA";"201";"-";"VILA NOVA";91751290;"51";"30227195";"-";"98646210";"-30.1310985";"-51.2152177";"ju.neli.martins@gmail.com                         ";"                                                                                                    ";"5101 BEM ME QUER              "
2018;43;4314902;"5102 IEI RENASCER VILA AMERICA";43189083;"R ROBERTO FELIX BERTOI";"25";"FUNDOS";"CAMAQUA";91910540;"51";"32417161";"-";"84761614";"-30.1012431";"-51.2423268";"crecherenascer@bol.com.br                         ";"                                                                                                    ";"5102 RENASCER                 "
2018;43;4314902;"5105 EEI ANANDA MARGA RESTINGA VELHA";43188460;"R MANOEL FARIA DA ROSA PRIMO";"779";"-";"RESTINGA";91790770;"51";"32508180";"-";"99992181";"-30.159860199999997";"-51.140246899999994";"restingavelha@amurt.org.br                        ";"                                                                                                    ";"5105 ANANDA MARGA RESTINGA VEL"
2018;43;4314902;"5106 EEI NOVA SANTA RITA";43190529;"R TOBAGO";"570";"VILA NOVA SANTA RITA";"RESTINGA";91790530;"51";"32581138";"-";"99207094";"-30.1589231";"-51.1439202";"creche.s.rita@gmail.com                           ";"                                                                                                    ";"5106 NOVA SANTA RITA          "
2018;43;4314902;"5107 EEI ARCO IRIS I";43185584;"R TOBAGO";"1258";"-";"RESTINGA";91790530;"51";"32610170";"-";"-";"-30.155906";"-51.1372846";"acobreve@gmail.com                                ";"                                                                                                    ";"5107 ARCO IRIS I              "
2018;43;4314902;"5108 EEI PADRE PEDRO LEONARDI I";43185533;"ESTR BARRO VERMELHO";"542";"-";"RESTINGA";91790100;"51";"32505008";"-";"-";"-30.1628744";"-51.1454685";"padrepedroleonardi@yahoo.com.br                   ";"                                                                                                    ";"5108 PADRE PEDRO LEONARDI I   "
2018;43;4314902;"5109 EEI ANANDA MARGA RESTINGA NOVA 1";43188125;"RUA ALAMEDA D";"84";"QUADRA 5";"RESTINGA NOVA";91790610;"51";"30946660";"-";"-";"-30.1549846";"-51.136894";"restinganova1@amurt.org.br                        ";"                                                                                                    ";"5109 ANANDA MARGA REST NOVA 1 "
2018;43;4314902;"5110 EEI ANANDA MARGA BELEM NOVO";43188745;"AV JUCA BATISTA";"6841";"-";"IPANEMA";91770001;"51";"33122300";"-";"32642480";"-30.1747344";"-51.176649999999995";"escola.bn@amurt.org.br                            ";"                                                                                                    ";"5110 ANANDA MARGA BELEM NOVO  "
2018;43;4314902;"5111 EEI ANANDA MARGA BARRO VERMELHO";43188150;"R JOSE DE ABREU FRAGA";"52";"-";"RESTINGA";91790095;"51";"32611753";"-";"32505256";"-30.1667164";"-51.146271299999995";"barrovermelho@amurt.org.br                        ";"                                                                                                    ";"5111 ANANDA MARGA BARRO VERMEL"
2018;43;4314902;"5112 EEI SANTA CATARINA DA RESTINGA";43190430;"AV LUIZ FRANCISCO ZANELLA";"1001";"LOT. FIGUEIRA";"RESTINGA";91790800;"51";"32662517";"-";"91154736";"-30.1620111";"-51.1365418";"santacatarinadarestinga@yahoo.com.br              ";"                                                                                                    ";"5112 SANTA CATARINA DA RES    "
2018;43;4314902;"5113 EEI ANJINHO DA GUARDA";43190677;"R DOMINGOS DE ABREU";"290";"-";"SARANDI";91120090;"51";"33645552";"-";"30610152";"-29.988703";"-51.1347265";"escinfantilanjinho@terra.com.br                   ";"                                                                                                    ";"5113 ANJINHO DA GUARDA        "
2018;43;4314902;"5114 EEI CAPELA NAVEGANTES";43188311;"AV GUAIBA";"3955";"-";"CRISTAL";91900420;"51";"32651955";"-";"32686509";"-30.0991831";"-51.26444497";"adm31@cpij.org.br                                 ";"                                                                                                    ";"5114 CAPELA NAVEGANTES        "
2018;43;4314902;"5115 IEI SANTA ANITA";43190723;"R MENEZES PAREDES";"425";"-";"NONOAI";90830070;"51";"32419300";"-";"93495938";"-30.0884957";"-51.2242941";"creche.santaanita@gmail.com                       ";"                                                                                                    ";"5115 SANTA ANITA              "
2018;43;4314902;"5116 IEI COLORINDO MEU DIA";43190561;"R JOSE LUIZ MARTINS COSTA";"1001";"-";"MARIO QUINTANA";91250330;"51";"33440043";"-";"84111477";"-30.0268234";"-51.0983652";"escolinha_colorindomeudia@outlook.com             ";"                                                                                                    ";"5116 COLORINDO MEU DIA        "
2018;43;4314902;"5117 EEI NOSSA SENHORA APARECIDA LOT MARIANTE";43190545;"RUA SAO LOURENCO";"220";"LOTEAMENTO MARIANTE";"LOMBA DO PINHEIRO";91787266;"51";"33319744";"32464002";"98521700";"-30.1124293";"-51.1529632";"secretariaamnsa2017@gmail.com                     ";"                                                                                                    ";"5117 EEI NSA LOT MARIANTE     "
2018;43;4314902;"5118 IEI NOSSA SENHORA DE BELEM";43190375;"AV PROF OSCAR PEREIRA";"7788";"BELEM VELHO";"BELEM VELHO";91712320;"51";"993843005";"-";"33204555";"-30.104008";"-51.1724752";"presidencia@sanatoriobelem.com.br                 ";"                                                                                                    ";"5118 NOSSA SENHORA BELEM      "
2018;43;4314902;"5119 EEI CRIANCA CIDADA";43191878;"AV ADELINO FERREIRA JARDIM";"280";"-";"RUBEM BERTA";91250310;"51";"33665476";"-";"-";"-30.020987799999997";"-51.104511099999996";"fliliane67@hotmail.com                            ";"                                                                                                    ";"5119 CRIANÇA CIDADA           "
2018;43;4314902;"5120 EEI MEDIANEIRA NOSSO SONHO I";43200915;"R JARY";"0";"119";"PASSO DA AREIA";91350170;"51";"32374877";"-";"-";"-30.0129724";"-51.169753899999996";"crechenossosonho1@gmail.com                       ";"                                                                                                    ";"5120 MEDIANEIRA               "
2018;43;4314902;"5121 IEI NSA SRA APARECIDA IPANEMA";43188214;"AV TRAMANDAI";"395";"-";"IPANEMA";91760050;"51";"33776391";"-";"-";"-30.1342703";"-51.2298776";"instituicaoaparecida@gmail.com                    ";"                                                                                                    ";"5121 N SEN APARECIDA IPANEMA  "
2018;43;4314902;"5123 EEI GOTINHAS DE AMOR";43204635;"R DRA VERA GLUSMAN KNIJNIK";"40";"-";"VILA CONCEICAO";91920073;"51";"32223860";"-";"-";"-30.120906299999998";"-51.2536194";"escolagotinhasdeamor@gmail.com                    ";"                                                                                                    ";"5123 GOTINHAS DE AMOR         "
2018;43;4314902;"5124 EEI ANTONIO GIANELLI - LOT CAVALHADA";43204660;"R MONSENHOR RUBEN NEIS";"731";"-";"CAVALHADA";91920000;"51";"32479194";"-";"-";"-30.1171493";"-51.2310059";"centrosocialagianelli@gmail.com                   ";"                                                                                                    ";"5124 ANTONIO GIANELLI - LOT CA"
2018;43;4314902;"5127 EEI VILA GAUCHA";43204651;"R DONA MARIA";"50";"MORRO SANTA TEREZA";"SANTA TEREZA";90850280;"51";"32811094";"-";"-";"-30.0714371";"-51.2326802";"adm37@cpij.org.br                                 ";"                                                                                                    ";"5127 VILA GAÚCHA              "
2018;43;4314902;"5128 IEI TIA HELENA";43201237;"R CRISTAL DA PAZ";"180";"-";"MARIO QUINTANA";91270844;"51";"33878523";"-";"99186225";"-30.0343658";"-51.1204824";"instituicaotiahelena@hotmail.com                  ";"                                                                                                    ";"5128 TIA HELENA               "
2018;43;4314902;"5129 IEI RENOVAR DA ESPERANCA II";43206220;"RUA 7153";"100";"-";"RESTINGA";90001970;"51";"32490688";"-";"98450820";"-30.146336799999997";"-51.1274484";"renovardaesperanca@hotmail.com                    ";"                                                                                                    ";"5129 RENOVAR DA ESPERANÇA II  "
2018;43;4314902;"5130 IEI TECNOBABY";43201288;"R MARIA TRINDADE";"115";"-";"FARRAPOS";90250275;"51";"33747553";"-";"-";"-29.9795098";"-51.1968993";"amovitec@oi.com.br                                ";"                                                                                                    ";"5130 TECNOBABY                "
2018;43;4314902;"5131 IEI SAO VICENTE DE PAULO";43201156;"AV PRESIDENTE FRANKLIN ROOSEVELT";"910";"-";"NAVEGANTES";90230000;"51";"33437500";"-";"-";"-30.007760899999997";"-51.2029904";"centroedusaovicente@gmail.com                     ";"                                                                                                    ";"5131 SAO VICENTE DE PAULO     "
2018;43;4314902;"5132 EEI ANANDA MARGA RESTINGA NOVA 2";43188222;"ACESSO O";"2051";"SEGUNDA UNIDADE";"RESTINGA";91792260;"51";"30946600";"-";"-";"-30.154921899999998";"-51.141466699999995";"restinganova2@amurt.org.br                        ";"                                                                                                    ";"5132 ANANDA MARGA REST NOVA II"
2018;43;4314902;"5133 EEI AMOVIR";43191894;"R ENG OSCAR DE OLIVEIRA RAMOS";"1411";"-";"RESTINGA";91790050;"51";"32489906";"-";"-";"-30.1494496";"-51.1452138";"escolainfantilamovir@gmail.com                    ";"                                                                                                    ";"5133 AMOVIR                   "
2018;43;4314902;"5134 EEI PE DE PILAO";43208312;"RUA SEISCENTOS E NOVENTA E OITO";"104";"-";"-";90250596;"51";"33434102";"-";"-";"-29.976431799999997";"-51.197184299999996";"educabueno@yahoo.com.br                           ";"                                                                                                    ";"5134 PÉ DE PILÃO              "
2018;43;4314902;"5135 EEI ANTONIO GIANELLI";43208185;"RUA B AFRICA DO SUL";"7";"SERTAO II";"BELEM VELHO";91787351;"51";"32452955";"-";"32452955";"-30.1161468";"-51.1517398";"centrosocialagianelli@gmail.com                   ";"                                                                                                    ";"5135 ANTONIO GIANELLI         "
2018;43;4314902;"5136 IEI UNIAO ESPERANCA";43207715;"RUA AMERICANA";"90";"-";"BELEM VELHO RINCAO";91787380;"51";"32660947";"-";"94448930";"-30.1130301";"-51.166785999999995";"escolauniaoesperanca@gmail.com                    ";"                                                                                                    ";"5136 UNIÃO ESPERANÇA          "
2018;43;4314902;"5138 IEI BRINCANDO E APRENDENDO";43211399;"R MONSENHOR SEVERINO BRUN";"65";"065- LOT PROGRESSO";"FARRAPOS";90245308;"51";"33431791";"85496404";"98139660";"-29.987814899999996";"-51.1970952";"brincando.aprendendo@outlook.com.br               ";"                                                                                                    ";"5138 BRINCANDO E APRENDENDO   "
2018;43;4314902;"5139 IEI ACOMPAR NUCLEO III";43211100;"RUA JOAO PARIS";"1107";"-";"RUBEM BERTA";91160440;"51";"33673098";"-";"98608640";"-29.988499";"-51.1004217";"acomparn3@yahoo.com.br                            ";"                                                                                                    ";"5139 ACOMPAR III              "
2018;43;4314902;"5140 EEI JESUS MENINO";43211453;"RUA C";"45";"VILA CASTELO";"RESTINGA";91790200;"51";"32575279";"92666212";"32501277";"-30.1522173";"-51.1346763";"adm19@cpij.org.br                                 ";"                                                                                                    ";"5140 JESUS MENINO             "
2018;43;4314902;"5141 EEI ABRASCE LOTEAMENTO PAMPA";43211119;"R VEREADOR ELOY MARTINS";"103";"91176692-SIMONE-";"FARRAPOS";90250264;"51";"33371917";"-";"-";"-29.9802828";"-51.1986998";"adm.pampa@abrascerestauracao.org                  ";"                                                                                                    ";"5141 ABRASCE PAMPA            "
2018;43;4314902;"5142 IEI CRESCER COM LAZER";43209254;"AV IRMAO FAUSTINO JOAO";"59";"-";"RUBEM BERTA";91250690;"51";"33406253";"-";"-";"-30.0213495";"-51.0940974";"crescercomlazer1996@hotmail.com                   ";"                                                                                                    ";"5142 CRESCER COM LAZER TIMBAUV"
2018;43;4314902;"5145 IEI PRINCESA ISABEL";43211330;"AV JOAO PESSOA";"2301";"FARROUPILHA";"CENTRO HISTORIC";90040000;"51";"32235030";"-";"-";"-30.0510306";"-51.2109004";"verapoa@terra.com.br                              ";"                                                                                                    ";"5145 PRINCESA ISABEL          "
2018;43;4314902;"5146 EEI CHACRINHA";43211216;"R HORTENCIO MACHADO DE LIMA";"48";"-";"RESTINGA";91790620;"51";"32412735";"-";"-";"-30.1665004";"-51.1419456";"escolachacrinha@hotmail.com                       ";"                                                                                                    ";"5146 CHACRINHA                "
2018;43;4314902;"5147 EEI PADRE PEDRO LEONARDI II";43240615;"R EMILIA PERRONI FERNANDES";"100";"-";"CAMAQUA";91910295;"51";"32221793";"-";"-";"-30.1052";"-51.245531299999996";"lopesnza@yahoo.com.br                             ";"                                                                                                    ";"5147 P P LEONARDI II          "
2018;43;4314902;"5148 EEI MARISTA MENINO JESUS";43280005;"RUA GRACA MOURA";"100";"-";"HUMAITA";90220330;"51";"30580603";"-";"-";"-30.0176651";"-51.2135073";"meninojesus@maristas.org.br                       ";"                                                                                                    ";"5148 MENINO JESUS LOT STA TERE"
2018;43;4314902;"5149 EEI EGIDIO PICCOLI";43240208;"R VIOLETA PARQUE DAS ORQUIDEAS";"2";"985073328";"MARIO QUINTANA";91260396;"51";"85235993";"-";"33382784";"-30.042138799999996";"-51.10631059999999";"escolaegidiopiccoli@yahoo.com.br                  ";"                                                                                                    ";"5149 EGIDIO PICCOLI           "
2018;43;4314902;"5150 EEI SEMEANDO O AMANHA";43281001;"TRAV COSME E DAMIAO";"84";"-";"PARTENON";90680247;"51";"33222654";"-";"-";"-30.0695528";"-51.1982088";"semeandoamanha2008@hotmail.com                    ";"                                                                                                    ";"5150 SEMEANDO O AMANHA        "
2018;43;4314902;"5151 EEI BOA VISTA";43240011;"R SALOMAO DUBIN";"11";"-";"BOA VISTA";91340450;"51";"33284728";"-";"-";"-30.0234088";"-51.8746199";"asmojibj@hotmail.com                              ";"                                                                                                    ";"5151 BOA VISTA                "
2018;43;4314902;"5152 IEI PEQUENO PRINCIPE";43240607;"R VIUVINHA";"275";"IPE II";"JARDIM CARVALHO";91430817;"51";"33971297";"-";"-";"-30.0553207";"-51.1497217";"pequenoazambuja@hotmail.com                       ";"                                                                                                    ";"5152 PEQUENO PRINCIPE         "
2018;43;4314902;"5153 EEI MEU DENGO";43282008;"R GERALDINA BATISTA";"115";"-";"RUBEM BERTA";91150095;"51";"33646437";"-";"99200297";"-30.0080712";"-51.114277699999995";"escolainfantilmeudengo@hotmail.com                ";"                                                                                                    ";"5153 MEU DENGO                "
2018;43;4314902;"5154 IEI MUNDO COLORIDO";43240429;"R DONA TEODORA";"984";"ACESSO 3 PREDIO 47";"FARRAPOS";90240300;"51";"985651121";"-";"98607246";"-29.9926875";"-51.1938659";"mundocoloridoescola@hotmail.com                   ";"                                                                                                    ";"5154 MUNDO COLORIDO           "
2018;43;4314902;"5155 IEI RENOVAR DA ESPERANCA";43283004;"R JACQUES YVES COSTEAU";"565";"-";"RESTINGA";91790425;"51";"32497520";"32662442";"99351625";"-30.1588946";"-51.1327706";"noris.manito@hotmail.com/  g8figueiro@gmail.com   ";"                                                                                                    ";"5155 RENOVAR DA ESPERANÇA     "
2018;43;4314902;"5156 IEI LAR ESPERANCA";43201296;"R DEODORO";"250";"-";"MARIO QUINTANA";91260370;"51";"33861153";"31262030";"33864877";"-30.036146";"-51.1198856";"crechelaresperanca@yahoo.com.br                   ";"                                                                                                    ";"5156 LAR ESPERANÇA            "
2018;43;4314902;"5157 EEI MARISTA RENASCER";43187846;"R IRMAOS MARISTAS";"0";"-";"MARIO QUINTANA";91250254;"51";"33662844";"-";"33662844";"-30.0237311";"-51.0975232";"renascer@maristas.org.br                          ";"                                                                                                    ";"5157 MARISTA RENASCER         "
2018;43;4314902;"5158 IEI ESCOLA DA VIDA";43206239;"R CRUZEIRO DO SUL";"2873";"-";"SANTA TEREZA";90840000;"51";"32424103";"-";"99803870";"-30.085231399999998";"-51.230973299999995";"escoladavida@hotmail.com                          ";"                                                                                                    ";"5158 ESCOLA DA VIDA           "
2018;43;4314902;"5159 EEI TIA IARA";43282016;"R ARAPEI";"551";"FUNDOS";"CRISTAL";90830470;"51";"992911918";"-";"99668287";"-30.087260899999997";"-51.229771899999996";"crechetiaiara@hotmail.com                         ";"                                                                                                    ";"5159 TIA IARA                 "
2018;43;4314902;"5160 EEI ANJINHOS DE CRISTAL";43240402;"BC B ESTR CRISTIANO KRAEMER";"450";"ACESSO J";"VILA NOVA";91750060;"51";"32452259";"-";"-";"-30.1196946";"-51.201672";"ascomocris@hotmail.com                            ";"                                                                                                    ";"5160 ANJINHOS DE CRISTAL      "
2018;43;4314902;"5161 EEI RAIO DE SOL";43284000;"RUA COLINA";"150";"-";"VILA NOVA";91750000;"51";"32451046";"-";"-";"-30.133041199999997";"-51.199592599999995";"eirscamponovo@yahoo.com.br                        ";"                                                                                                    ";"5161 RAIO DE SOL              "
2018;43;4314902;"5163 EEI PLANETA INFANTIL";43207723;"ACESSO A";"3036";"-";"RESTINGA NOVA";91793020;"51";"32610865";"-";"-";"-30.1481244";"-51.1410318";"emerson_susana@hotmail.com                        ";"                                                                                                    ";"5163 PLANETA INFANTIL         "
2018;43;4314902;"5164 EEI ARCO IRIS II";43260004;"R TOBAGO";"1260";"-";"RESTINGA";91790530;"51";"32612081";"-";"32610170";"-30.1557883";"-51.1370665";"acobreve@gmail.com                                ";"                                                                                                    ";"5164 ARCO ÍRIS II             "
2018;43;4314902;"5165 IEI VOVO BELINHA";43254403;"AV JOAQUIM PORTO VILLANOVA";"136";"VILA PINTO";"JARDIM CARVALHO";91410400;"51";"33381044";"-";"-";"-30.0482674";"-51.1555676";"cintia.vovobeli@gmail.com                         ";"                                                                                                    ";"5165 VOVÓ BELINHA             "
2018;43;4314902;"5166 EEI ABRASCE PARTENON";43254209;"R MILTON SALES SILVEIRA";"37";"-";"CEL AP BORGES";91530660;"51";"33197898";"-";"-";"-30.0700604";"-51.1832874";"escola.partenon@abrascerestauracao.org            ";"                                                                                                    ";"5166 ABRASCE PARTENON         "
2018;43;4314902;"5167 EEI PADRE VALLE NOSSO SONHO II";43259014;"AV BERNARDI";"61";"-";"CRISTO REDENTOR";91040030;"51";"33433436";"-";"-";"-30.0098497";"-51.1564877";"e.e.i.nossosonho2@hotmail.com                     ";"                                                                                                    ";"5167 PADRE VALLE              "
2018;43;4314902;"5168 EEI TIA BETH";43211666;"R VINTE SETE VILA MATO SAMPAIO";"125";"97227777 985210887";"BOM JESUS";91420634;"51";"33343380";"-";"33387255";"-30.0501616";"-51.1639748";"adm40@cpij.org.br                                 ";"                                                                                                    ";"5168 TIA BETH                 "
2018;43;4314902;"5169 IEI SONHO MEU";43254624;"AV MOAB CALDAS ACESSO 6";"20";"VILA TRONCO";"SANTA TEREZA";90880310;"51";"32338068";"-";"-";"-30.0679307";"-51.2164041";"crechesonhomeu@gmail.com                          ";"                                                                                                    ";"5169 SONHO MEU                "
2018;43;4314902;"5170 IEI INTEGRACAO DOS ANJOS";43240410;"AV IPIRANGA";"3780";"3858";"PRAIA DE BELAS";90160090;"51";"33528890";"99275058";"98449173";"-30.051539299999998";"-51.1940125";"anjosdaintegracao@gmail.com                       ";"                                                                                                    ";"5170 INTEGRAÇÃO DOS ANJOS     "
2018;43;4314902;"5172 EEI POPULAR NOVA GERACAO";43295274;"R PRIMAVERA";"50";"-";"SARANDI";91140290;"51";"33404386";"-";"-";"-29.988251199999997";"-51.134521899999996";"ngeracao@hotmail.com                              ";"                                                                                                    ";"5172 NOVA GERAÇÃO             "
2018;43;4314902;"5173 EEI CASA DE NAZARE";43300170;"ESTR ARACAJU";"453";"-";"VILA NOVA";91740320;"51";"32491444";"97252650";"32427266";"-30.1033387";"-51.2192456";"escolacasanazare@gmail.com                        ";"                                                                                                    ";"5173 GALBUSERA                "
2018;43;4314902;"5175 IEI OSICOM II";43296181;"R MANOEL FERRADOR";"405";"-";"PASSO DAS PEDRAS";91230370;"51";"30193822";"-";"33475112";"-30.0173925";"-51.1261082";"OSICOM22@GMAIL.COM                                ";"                                                                                                    ";"5175 OSICOM II                "
2018;43;4314902;"5176 IEI OSICOM III";43295282;"R BONIFACIO CALDERON";"45";"-";"PASSO DAS PEDRAS";91230170;"51";"33563395";"96794951";"33445159";"-30.0206808";"-51.1270166";"infantilosicom3@gmail.com                         ";"                                                                                                    ";"5176 OSICOM III               "
2018;43;4314902;"5177 EEI SAO GUILHERME";43299199;"DIRETRIZ 3729";"116";"-";"PARTENON";91520650;"51";"33849997";"-";"33849997";"-30.067335399999997";"-51.1595448";"escolasaoguilherme@yahoo.com.br                   ";"                                                                                                    ";"5177 SÃO GUILHERME            "
2018;43;4314902;"5179 IEI DUTRA JARDIM";43298206;"R ALBERTO SEHBE SIMON";"74";"VILA DUTRA JARDIM";"RUBEM BERTA";91160595;"51";"33814901";"-";"84661805";"-30.001091099999996";"-51.1014116";"dutrajardim_2009@hotmail.com                      ";"                                                                                                    ";"5179 DUTRA JARDIM             "
2018;43;4314902;"5180 EEI PORTAL ENCANTADO";43300146;"R JAIME LINO DOS SANTOS FILHO";"604";"QUINTA DO PORTAL";"LOMBA PINHEIRO";91550610;"51";"33181777";"-";"98295034";"-30.085206";"-51.1159756";"                                                  ";"                                                                                                    ";"5180 PORTAL ENCANTADO         "
2018;43;4314902;"5181 EEI PLANETA MAGICO";43298150;"R B VILA BECO DOS HERDEIROS";"61";"VILA DOS HERDEIROS";"AGRONOMIA";91540030;"51";"33774081";"-";"-";"-30.085206";"-51.1159756";"escolainfantilplanetamagico@gmail.com             ";"                                                                                                    ";"5181 PLANETA MÁGICO           "
2018;43;4314902;"5182 EEI CRECHE NAVEGANTES";43185290;"AV POLONIA";"625";"-";"SAO GERALDO";90230110;"51";"33422324";"84399008";"33422324";"-30.0088293";"-51.2025341";"leniraleites40@gmail.com                          ";"                                                                                                    ";"5182 CRECHE NAVEGANTES        "
2018;43;4314902;"5183 EEI FAVO DE MEL VILA ELIZABETH";43211348;"R VIDAL BARBOSA";"1075";"-";"SARANDI";91120340;"51";"33643737";"-";"-";"-29.9806262";"-51.1315005";"centrofavodemel@yahoo.com.br                      ";"                                                                                                    ";"5183 FAVO DE MEL              "
2018;43;4314902;"5184 EEI JARDIM IPIRANGA";43299148;"AV ENG ARY DE ABREU LIMA";"390";"-";"VILA IPIRANGA";91360070;"51";"33470210";"-";"-";"-30.026365";"-51.1544272";"julianal_brito@hotmail.com                        ";"                                                                                                    ";"5184 JARDIM IPIRANGA          "
2018;43;4314902;"5185 EEI SAO MARCOS";43297110;"R ANTONIO JOSE DE SANTANA";"899";"-";"AGRONOMIA";91540180;"51";"33222742";"-";"-";"-30.0853063";"-51.1154847";"a.b.saomarcos@hotmail.com                         ";"                                                                                                    ";"5185 SÃO MARCOS               "
2018;43;4314902;"5186 EEI CANTINHO ENCANTADO";43300081;"RUA JOSE INACIO DA SILVA";"441";"-";"BELEM NOVO";91780240;"51";"985248231";"-";"98523820";"-30.2066819";"-51.1701408";"jeannine.kercher@gmail.com                        ";"                                                                                                    ";"5186 CANTINHO ENCANTADO       "
2018;43;4314902;"5187 EEI SEIS MORANGUINHOS";43296190;"R SARGENTO MANOEL ARRUDA";"405";"-";"JARDIM CARVALHO";91430220;"51";"33812548";"33892802";"-";"-30.046755";"-51.1465118";"escolaseismoranguinhos@gmail.com                  ";"                                                                                                    ";"5187 SEIS MORANGUINHOS        "
2018;43;4314902;"5189 IEI CANTO DOS ANJOS";43298133;"R FELISBERTO MAIA";"190";"-";"MARIO QUINTANA";91260371;"51";"92271078";"-";"33380224";"-30.0297969";"-51.1090545";"anjos180@yahoo.com.br                             ";"                                                                                                    ";"5189 CANTO DOS ANJOS          "
2018;43;4314902;"5190 EEI PINGUINHOS DE OURO";43296130;"BC CARLOS SUPERTI";"300";"-";"VILA NOVA";91750020;"51";"-";"81219053";"32499189";"-30.124392899999997";"-51.217559599999994";"eeipinguinhosdeouro@gmail.com                     ";"                                                                                                    ";"5190 PINGUINHOS DE OURO       "
2018;43;4314902;"5191 IEI CASA DA CRIANCA N SRA AUXILIADORA";43108580;"RUA FELIPE NERI";"78";"BLOCO";"AUXILIADORA";90440150;"51";"33329521";"-";"33329521";"-30.0231757";"-51.1950563";"casadacriancansa@gmail.com                        ";"                                                                                                    ";"5191 CRECHE N SRA AUXILIADORA "
2018;43;4314902;"5192 EEI RENASCER DA ESPERANCA";43285007;"AV ECON NILO WULFF";"919";"984804762";"RESTINGA";91790000;"51";"30124576";"-";"32508100";"-30.1505215";"-51.1451066";"renascereducacaoinfantil@outlook.com              ";"                                                                                                    ";"5192 RENASCER DA ESPERANÇA    "
2018;43;4314902;"5193 EEI TREVO DE OURO";43367330;"BECO DO GUARA";"59";"RUA 3";"GUARUJA";91770012;"51";"32660062";"-";"-";"-30.1591027";"-51.2140756";"esctrevodeouro@gmail.com                          ";"                                                                                                    ";"5193 TREVO DE OURO            "
2018;43;4314902;"5194 EEI PLANETA DO SABER";43367348;"R ORLANDO AITA";"2";"-";"PROTASIO ALVES";91240030;"51";"84232280";"33444131";"33444131";"-30.018334";"-51.111371";"PLANETADOSABER.CONCOJAL@GMAIL.COM                 ";"                                                                                                    ";"5194 PLANETA DO SABER         "
2018;43;4314902;"5195 IEI ANJO DAS FLORES";43367356;"R PESCADOR";"400";"ILHA DAS FLORES";"ARQUIPELAGO";90090170;"51";"34148866";"-";"99924898";"-29.9866458";"-51.2439598";"anjodasflores@hotmail.com                         ";"                                                                                                    ";"5195 ANJO DAS FLORES          "
2018;43;4314902;"5196 IEI MARIA DE NAZARE II - IEIMAN";43367364;"R ITAPUA";"64";"-";"MARIO QUINTANA";91270325;"51";"33970010";"-";"-";"-30.032670699999997";"-51.119682299999994";"ieiman@terra.com.br                               ";"                                                                                                    ";"5196 IEI MARIA DE NAZARÉ II   "
2018;43;4314902;"5197 EEI TIO ZE";43367372;"R PRISMA";"64";"-";"SANTA TEREZA";90840130;"51";"32315722";"-";"98651037";"-30.074327699999998";"-51.2318429";"tbronkinha@hotmail.com                            ";"                                                                                                    ";"5197 EEI TIO ZÉ               "
2018;43;4314902;"5198 EEI MEUS PRIMEIROS PASSOS";43367380;"R ANA JULIA PEREIRA";"176";"CHACARA DAS PERAS";"LOMBA PINHEIRO";91550000;"51";"33150064";"-";"-";"-30.0996511";"-51.143621599999996";"escolaprimeirospassos2010@hotmail.com             ";"                                                                                                    ";"5198 MEUS PRIMEIROS PASSOS    "
2018;43;4314902;"5199 EEI MUNDO DA IMAGINACAO";43210457;"AV MOAB CALDAS";"403";"-";"SANTA TEREZA";90880310;"51";"32335309";"-";"-";"-30.0680609";"-51.216383199999996";"usps.ong@hotmail.com                              ";"                                                                                                    ";"5199 MUNDO DA IMAGINAÇÃO      "
2018;43;4314902;"5200 EEI A CAMINHO DO SOL";43209041;"R DR ANTONIO MAZZAFERRO NETO";"443";"-";"ABERTA DOS MORROS";91787196;"51";"32690749";"-";"-";"-30.1594269";"-51.173816099999996";"acaminhodosol13@hotmail.com                       ";"                                                                                                    ";"5200 CEICSOL                  "
2018;43;4314902;"5201 IEI PEDACO DE GENTE";43361404;"R RAUL CAUDURO";"297";"-";"MARIO QUINTANA";91270580;"51";"33866516";"91463695";"-";"-30.0297176";"-51.1039435";"centroinfantilpedacodegente@yahoo.com.br          ";"                                                                                                    ";"5201 PEDAÇO DE GENTE          "
2018;43;4314902;"5202 EEI GIRASSOL LAMI";43241204;"R NOVA OLINDA";"203";"-";"LAMI";91787640;"51";"-";"-";"99828474";"-30.238843799999998";"-51.087908";"creche_girassol@hotmail.com                       ";"                                                                                                    ";"5202 GIRASSOL - LAMI          "
2018;43;4314902;"5203 EEI AMIGO GERMANO";43185231;"R SANTANA";"1225";"-";"FARROUPILHA";90040372;"51";"32333392";"-";"32234655";"-30.048551699999997";"-51.2075464";"escola.amigo.germano@gmail.com                    ";"                                                                                                    ";"5203 AMIGO GERMANO            "
2018;43;4314902;"5204 EEI CRECHE ELSINHA";43187870;"R MARCIANO RIBEIRO";"83";"-";"MEDIANEIRA";90870360;"51";"32237979";"-";"91894338";"-30.068193899999997";"-51.2067707";"crecheelsinha@hotmail.com                         ";"                                                                                                    ";"5204 ELSINHA                  "
2018;43;4314902;"5205 IEI OSICOM IV - NOSSA SENHORA DA SALETE";43004822;"R PARLAMENTO";"215";"-";"PROTASIO ALVES";91450370;"51";"33388701";"-";"-";"-30.0419296";"-51.1208081";"rigotti33@gmail.com                               ";"                                                                                                    ";"5205 OSICOM IV                "
2018;43;4314902;"5207 IEI PE DE MOLEQUE";43004610;"R MARIA PAULA LEAL";"200";"-";"FARRAPOS";90250617;"51";"33621265";"92337263";"-";"-29.983338";"-51.199782299999995";"instituicaopedemoleque@gmail.com                  ";"                                                                                                    ";"5207 PÉ DE MOLEQUE            "
